Line_Num,ESP32_Time_s,ID0_IMU,LinAcc_x,LinAcc_y,LinAcc_z,Pitch,Roll,Yaw,Gyro_x,Gyro_y,Gyro_z,Magnet_uT_x,Magnet_uT_y,Magnet_uT_z,Grav_x,Grav_y,Grav_z,Quat_re,Quat_i,Quat_j,Quat_k,ID1_ASPD,RawPress_Pa,temp_C,RawAirspeed,CorrAirspeed,ID2_GPS,latitude,longitude,heading,gnd_speed,altitude,hours,mins,secs,hundredths,satellites,ID3_AP,Flight_Phase,AP_Mode,AP_HDG,AP_ROLL_TGT,AP_PITCH_TGT,ID4_SERVO,servo_L_angle,servo_R_angle,servo_Angle_TGT,servo_Action_TGT
1,0.033161,0,1.294,-0.359,-1.102,6.997,64.792,118.664,3.469,-0.112,0.671,11.750,-30.812,-23.875,3.922,28.630,13.508,0.708,0.486,0.228,0.458,1,10.202,-15.702,12.721,0.000,2,0.000000,0.000000,0.000000,0.000,0.000000,0,0,0,0,0,3,U_TURN_HDG,AP_PROT_ROLL_MAX,0.000,-30.000,0.000,4,23,40,20,ROLL_LEFT
2,0.087992,0,0.782,0.141,-0.974,7.014,64.848,118.675,-5.931,-0.224,0.336,12.000,-29.562,-23.562,3.922,28.630,13.482,0.708,0.487,0.229,0.458,1,10.183,-15.633,12.709,0.000,2,0.000000,0.000000,0.000000,0.000,0.000000,0,0,0,0,0,3,U_TURN_HDG,AP_PROT_ROLL_MAX,0.000,-30.000,0.000,4,23,40,20,ROLL_LEFT
3,0.138556,0,0.384,0.525,1.038,7.053,64.771,118.672,3.469,-0.336,0.560,11.875,-30.312,-20.938,3.947,28.630,13.508,0.708,0.486,0.228,0.458,1,9.705,-15.678,12.407,0.000,2,0.000000,0.000000,0.000000,0.000,0.000000,0,0,0,0,0,3,U_TURN_HDG,AP_PROT_ROLL_MAX,0.000,-30.000,0.000,4,23,40,20,ROLL_LEFT
4,0.188512,0,0.513,0.769,0.666,7.008,64.481,118.639,-0.112,0.783,0.560,11.500,-30.875,-22.438,3.922,28.554,13.662,0.709,0.484,0.227,0.459,1,9.977,-15.606,12.580,0.000,2,0.000000,0.000000,0.000000,0.000,0.000000,0,0,0,0,0,3,U_TURN_HDG,AP_PROT_ROLL_MAX,0.000,-30.000,0.000,4,23,40,20,ROLL_LEFT
5,0.243286,0,-0.474,-1.012,-0.500,7.009,64.455,118.628,2.126,0.112,1.007,11.188,-30.250,-21.312,3.947,28.554,13.585,0.709,0.484,0.227,0.459,1,10.350,-15.599,12.813,0.000,2,0.000000,0.000000,0.000000,0.000,0.000000,0,0,0,0,0,3,U_TURN_HDG,AP_PROT_ROLL_MAX,0.000,-30.000,0.000,4,23,40,20,ROLL_LEFT
6,0.316022,0,-0.372,-0.884,-1.602,7.077,64.646,118.588,-2.910,0.336,-0.112,11.750,-29.312,-21.375,3.947,28.554,13.585,0.708,0.485,0.228,0.459,1,9.961,-15.637,12.570,0.000,2,0.000000,0.000000,0.000000,0.000,0.000000,0,0,0,0,0,3,U_TURN_HDG,AP_PROT_ROLL_MAX,0.000,-30.000,0.000,4,23,40,20,ROLL_LEFT
7,0.359021,0,0.231,-0.077,1.564,7.101,64.746,118.632,6.714,-1.455,0.560,11.188,-30.625,-20.938,3.973,28.605,13.482,0.708,0.486,0.228,0.459,1,9.779,-15.651,12.455,0.000,2,0.000000,0.000000,0.000000,0.000,0.000000,0,0,0,0,0,3,U_TURN_HDG,AP_PROT_ROLL_MAX,0.000,-30.000,0.000,4,23,40,20,ROLL_LEFT
8,0.412873,0,0.461,-0.077,1.294,7.136,64.766,118.628,-1.567,1.455,-0.224,11.562,-30.312,-20.188,3.999,28.605,13.508,0.708,0.487,0.228,0.459,1,9.562,-15.678,12.316,0.000,2,0.000000,0.000000,0.000000,0.000,0.000000,0,0,0,0,0,3,U_TURN_HDG,AP_PROT_ROLL_MAX,0.000,-30.000,0.000,4,23,40,20,ROLL_LEFT
9,0.459917,0,-0.141,-0.551,1.012,7.131,64.732,118.617,-9.064,3.805,1.119,11.312,-30.062,-19.125,3.947,28.554,13.610,0.708,0.486,0.228,0.459,1,10.114,-15.633,12.666,0.000,2,0.000000,0.000000,0.000000,0.000,0.000000,0,0,0,0,0,3,U_TURN_HDG,AP_PROT_ROLL_MAX,0.000,-30.000,0.000,4,23,40,20,ROLL_LEFT
10,0.505937,0,-0.269,-0.128,-1.371,7.134,64.575,118.392,-10.855,3.469,1.567,11.938,-28.500,-24.812,3.973,28.554,13.610,0.708,0.485,0.228,0.461,1,10.470,-15.607,12.887,0.000,2,0.000000,0.000000,0.000000,0.000,0.000000,0,0,0,0,0,3,U_TURN_HDG,AP_PROT_ROLL_MAX,0.000,-30.000,0.000,4,23,40,20,ROLL_LEFT
11,0.548022,0,0.359,0.602,-0.820,7.158,64.756,118.399,-3.469,-0.560,-0.783,11.812,-30.562,-22.750,3.999,28.605,13.508,0.707,0.486,0.228,0.460,1,10.135,-15.625,12.680,0.000,2,0.000000,0.000000,0.000000,0.000,0.000000,0,0,0,0,0,3,U_TURN_HDG,AP_PROT_ROLL_MAX,0.000,-30.000,0.000,4,23,40,20,ROLL_LEFT
12,0.615022,0,-0.769,-0.513,0.846,7.135,64.980,118.429,6.043,-0.448,-0.112,11.812,-30.562,-22.750,3.973,28.656,13.405,0.706,0.487,0.229,0.460,1,9.462,-15.613,12.251,0.000,2,0.000000,0.000000,0.000000,0.000,0.000000,0,0,0,0,0,3,U_TURN_HDG,AP_PROT_ROLL_MAX,0.000,-30.000,0.000,4,23,40,20,ROLL_LEFT
13,0.663288,0,0.231,0.243,0.243,7.144,65.224,118.416,-1.679,0.224,0.112,12.000,-31.375,-19.750,3.973,28.682,13.277,0.705,0.489,0.230,0.459,1,10.355,-15.622,12.816,0.000,2,0.000000,0.000000,0.000000,0.000,0.000000,0,0,0,0,0,3,U_TURN_HDG,AP_PROT_ROLL_MAX,0.000,-30.000,0.000,4,23,40,20,ROLL_LEFT
14,0.718022,0,-0.141,-0.103,-0.487,7.138,65.070,118.421,-4.924,0.112,-0.895,11.062,-29.875,-23.312,3.973,28.630,13.380,0.706,0.488,0.230,0.459,1,10.082,-15.594,12.646,0.000,2,0.000000,0.000000,0.000000,0.000,0.000000,0,0,0,0,0,3,U_TURN_HDG,AP_PROT_ROLL_MAX,0.000,-30.000,0.000,4,23,40,20,ROLL_LEFT
15,0.772740,0,0.730,-0.807,-0.192,7.127,64.767,118.454,0.224,-0.895,0.448,11.562,-29.688,-20.562,3.973,28.579,13.508,0.707,0.486,0.228,0.460,1,9.681,-15.636,12.392,0.000,2,0.000000,0.000000,0.000000,0.000,0.000000,0,0,0,0,0,3,U_TURN_HDG,AP_PROT_ROLL_MAX,0.000,-30.000,0.000,4,23,40,20,ROLL_LEFT
16,0.819022,0,0.859,-0.807,0.167,7.151,64.783,118.462,-1.343,0.895,0.112,11.500,-31.250,-22.375,3.973,28.579,13.482,0.707,0.486,0.228,0.460,1,9.797,-15.620,12.466,0.000,2,0.000000,0.000000,0.000000,0.000,0.000000,0,0,0,0,0,3,U_TURN_HDG,AP_PROT_ROLL_MAX,0.000,-30.000,0.000,4,23,40,20,ROLL_LEFT
17,0.883698,0,-0.654,-0.308,-1.077,7.127,64.811,118.410,1.455,0.560,0.560,11.250,-31.312,-20.938,3.973,28.605,13.457,0.707,0.486,0.229,0.460,1,10.682,-15.632,13.017,0.000,2,0.000000,0.000000,0.000000,0.000,0.000000,0,0,0,0,0,3,U_TURN_HDG,AP_PROT_ROLL_MAX,0.000,-30.000,0.000,4,23,40,20,ROLL_LEFT
18,0.931022,0,-1.025,-1.089,-1.166,7.225,65.228,118.453,12.086,-2.686,0.783,12.000,-30.688,-19.750,4.024,28.656,13.303,0.705,0.489,0.230,0.459,1,9.826,-15.634,12.485,0.000,2,0.000000,0.000000,0.000000,0.000,0.000000,0,0,0,0,0,3,U_TURN_HDG,AP_PROT_ROLL_MAX,0.000,-30.000,0.000,4,23,40,20,ROLL_LEFT
19,0.987814,0,1.064,0.654,-1.474,7.246,64.870,118.542,-0.224,-2.350,-0.112,11.062,-31.188,-23.562,4.024,28.579,13.457,0.707,0.487,0.228,0.460,1,9.873,-15.618,12.515,0.000,2,0.000000,0.000000,0.000000,0.000,0.000000,0,0,0,0,0,3,U_TURN_HDG,AP_PROT_ROLL_MAX,0.000,-30.000,0.000,4,23,40,20,ROLL_LEFT
20,1.052079,0,2.563,-0.679,0.590,7.212,64.669,118.577,-22.941,0.671,-0.448,10.688,-30.500,-23.625,4.024,28.425,13.815,0.708,0.486,0.227,0.460,1,10.210,-15.599,12.726,0.000,2,0.000000,0.000000,0.000000,0.000,0.000000,0,0,0,0,0,3,U_TURN_HDG,AP_PROT_ROLL_MAX,0.000,-30.000,0.000,4,23,40,20,ROLL_LEFT
21,1.100358,0,-0.795,-0.936,0.410,7.202,64.213,118.637,-2.238,-0.224,-0.560,11.438,-30.188,-22.875,3.999,28.451,13.764,0.710,0.483,0.225,0.460,1,9.641,-15.650,12.367,0.000,2,0.000000,0.000000,0.000000,0.000,0.000000,0,0,0,0,0,3,U_TURN_HDG,AP_PROT_ROLL_MAX,0.000,-30.000,0.000,4,23,40,20,ROLL_LEFT
22,1.174042,0,-0.103,1.051,0.308,7.237,64.273,118.638,12.422,-1.231,1.343,12.562,-30.312,-20.875,4.024,28.400,13.790,0.710,0.484,0.225,0.460,1,9.990,-15.602,12.588,0.000,2,0.000000,0.000000,0.000000,0.000,0.000000,0,0,0,0,0,3,U_TURN_HDG,AP_PROT_ROLL_MAX,0.000,-30.000,0.000,4,23,40,20,ROLL_LEFT
23,1.243660,0,-0.192,-1.282,0.564,7.259,64.859,118.614,1.007,3.581,-0.112,11.562,-30.312,-20.625,4.024,28.579,13.431,0.707,0.487,0.227,0.459,1,9.829,-15.633,12.487,0.000,2,0.000000,0.000000,0.000000,0.000,0.000000,0,0,0,0,0,3,U_TURN_HDG,AP_PROT_ROLL_MAX,0.000,-30.000,0.000,4,23,40,20,ROLL_LEFT
24,1.288022,0,0.333,0.846,-0.449,7.197,64.810,118.347,-5.260,4.476,1.455,12.188,-29.312,-20.625,3.999,28.554,13.482,0.706,0.486,0.229,0.461,1,10.205,-15.600,12.723,0.000,2,0.000000,0.000000,0.000000,0.000,0.000000,0,0,0,0,0,3,U_TURN_HDG,AP_PROT_ROLL_MAX,0.000,-30.000,0.000,4,23,40,20,ROLL_LEFT
25,1.339548,0,0.936,-0.833,-0.846,7.195,64.406,118.167,0.560,-0.448,0.560,12.250,-31.062,-19.750,3.999,28.477,13.662,0.707,0.484,0.228,0.463,1,10.407,-15.579,12.848,0.000,2,0.000000,0.000000,0.000000,0.000,0.000000,0,0,0,0,0,3,U_TURN_HDG,AP_PROT_ROLL_MAX,0.000,-30.000,0.000,4,23,40,20,ROLL_LEFT
26,1.389022,0,0.051,0.654,0.179,7.223,64.478,118.148,6.155,-0.336,0.336,11.562,-31.312,-20.875,4.024,28.477,13.636,0.707,0.484,0.228,0.463,1,10.288,-15.571,12.775,0.000,2,0.000000,0.000000,0.000000,0.000,0.000000,0,0,0,0,0,3,U_TURN_HDG,AP_PROT_ROLL_MAX,0.000,-30.000,0.000,4,23,40,20,ROLL_LEFT
27,1.482167,0,-1.423,1.935,-0.795,7.209,64.766,118.099,-4.924,3.021,0.112,11.875,-30.938,-21.688,3.999,28.554,13.457,0.706,0.486,0.229,0.462,1,9.460,-15.639,12.250,0.000,2,0.000000,0.000000,0.000000,0.000,0.000000,0,0,0,0,0,3,U_TURN_HDG,AP_PROT_ROLL_MAX,0.000,-30.000,0.000,4,23,40,20,ROLL_LEFT
28,1.532117,0,-1.051,1.333,-1.602,7.215,64.939,117.836,7.945,-3.357,-0.671,10.938,-30.312,-19.875,4.024,28.554,13.431,0.704,0.486,0.231,0.464,1,10.600,-15.586,12.967,0.000,2,0.000000,0.000000,0.000000,0.000,0.000000,0,0,0,0,0,3,U_TURN_HDG,AP_PROT_ROLL_MAX,0.000,-30.000,0.000,4,23,40,20,ROLL_LEFT
29,1.583022,0,1.192,0.948,0.218,7.235,65.056,117.989,-1.455,-3.133,-1.790,11.438,-30.500,-23.250,4.024,28.605,13.328,0.704,0.487,0.231,0.463,1,9.971,-15.633,12.576,0.000,2,0.000000,0.000000,0.000000,0.000,0.000000,0,0,0,0,0,3,U_TURN_HDG,AP_PROT_ROLL_MAX,0.000,-30.000,0.000,4,23,40,20,ROLL_LEFT
30,1.632028,0,0.936,0.923,0.718,7.218,64.812,118.187,-3.917,-3.357,-1.567,11.562,-30.938,-21.375,3.973,28.554,13.457,0.706,0.486,0.229,0.462,1,9.873,-15.619,12.515,0.000,2,0.000000,0.000000,0.000000,0.000,0.000000,0,0,0,0,0,3,U_TURN_HDG,AP_PROT_ROLL_MAX,0.000,-30.000,0.000,4,23,40,20,ROLL_LEFT
31,1.692688,0,-0.269,-0.525,0.961,7.216,64.835,118.269,-2.798,-0.783,-0.560,10.875,-30.000,-20.688,3.973,28.554,13.457,0.706,0.487,0.229,0.461,1,9.581,-15.597,12.328,0.000,2,0.000000,0.000000,0.000000,0.000,0.000000,0,0,0,0,0,3,U_TURN_HDG,AP_PROT_ROLL_MAX,0.000,-30.000,0.000,4,23,40,20,ROLL_LEFT
32,1.763727,0,-1.025,0.871,-2.602,7.209,64.814,118.201,-5.036,2.798,1.119,11.125,-29.250,-21.125,3.973,28.554,13.431,0.706,0.486,0.229,0.462,1,10.288,-15.596,12.775,0.000,2,0.000000,0.000000,0.000000,0.000,0.000000,0,0,0,0,0,3,U_TURN_HDG,AP_PROT_ROLL_MAX,0.000,-30.000,0.000,4,23,40,20,ROLL_LEFT
33,1.812364,0,0.833,-0.577,1.845,7.224,64.930,118.175,0.000,-0.560,-1.007,12.250,-31.625,-20.500,3.999,28.605,13.303,0.705,0.487,0.230,0.462,1,9.834,-15.557,12.490,0.000,2,0.000000,0.000000,0.000000,0.000,0.000000,0,0,0,0,0,3,U_TURN_HDG,AP_PROT_ROLL_MAX,0.000,-30.000,0.000,4,23,40,20,ROLL_LEFT
34,1.873022,0,-0.026,-0.384,-0.974,7.191,64.766,118.226,-2.798,0.112,0.560,11.625,-30.312,-19.875,3.973,28.528,13.482,0.706,0.486,0.229,0.461,1,9.712,-15.625,12.412,0.000,2,0.000000,0.000000,0.000000,0.000,0.000000,0,0,0,0,0,3,U_TURN_HDG,AP_PROT_ROLL_MAX,0.000,-30.000,0.000,4,23,40,20,ROLL_LEFT
35,1.943754,0,-0.295,-0.705,0.833,7.232,64.719,118.206,-9.624,0.224,0.224,11.625,-31.625,-20.188,3.999,28.502,13.533,0.706,0.486,0.229,0.462,1,9.419,-15.629,12.223,0.000,2,0.000000,0.000000,0.000000,0.000,0.000000,0,0,0,0,0,3,U_TURN_HDG,AP_PROT_ROLL_MAX,0.000,-30.000,0.000,4,23,40,20,ROLL_LEFT
36,1.987662,0,-0.423,-0.654,-1.025,7.240,64.386,118.150,-3.245,0.895,1.119,11.562,-30.250,-21.062,3.999,28.425,13.687,0.707,0.484,0.227,0.463,1,9.971,-15.608,12.576,0.000,2,0.000000,0.000000,0.000000,0.000,0.000000,0,0,0,0,0,3,U_TURN_HDG,AP_PROT_ROLL_MAX,0.000,-30.000,0.000,4,23,40,20,ROLL_LEFT
37,2.044022,0,0.179,1.781,0.359,7.251,64.564,118.100,-5.371,1.007,-0.671,11.188,-30.938,-21.000,3.999,28.477,13.585,0.706,0.485,0.228,0.463,1,10.620,-15.578,12.979,0.000,2,0.000000,0.000000,0.000000,0.000,0.000000,0,0,0,0,0,3,U_TURN_HDG,AP_PROT_ROLL_MAX,0.000,-30.000,0.000,4,23,40,20,ROLL_LEFT
38,2.082022,0,-0.397,-1.051,-0.474,7.195,64.424,118.111,5.148,-0.783,-1.007,11.562,-30.312,-20.250,3.973,28.451,13.636,0.707,0.484,0.228,0.463,1,9.784,-15.574,12.458,0.000,2,0.000000,0.000000,0.000000,0.000,0.000000,0,0,0,0,0,3,U_TURN_HDG,AP_PROT_ROLL_MAX,0.000,-30.000,0.000,4,23,40,20,ROLL_LEFT
39,2.132928,0,-0.141,0.525,0.769,7.207,64.638,118.137,-1.790,-0.336,0.112,11.562,-29.688,-19.938,3.973,28.502,13.533,0.706,0.485,0.229,0.462,1,9.971,-15.583,12.576,0.000,2,0.000000,0.000000,0.000000,0.000,0.000000,0,0,0,0,0,3,U_TURN_HDG,AP_PROT_ROLL_MAX,0.000,-30.000,0.000,4,23,40,20,ROLL_LEFT
40,2.203787,0,-0.654,-0.077,-0.923,7.198,64.596,118.127,-3.245,1.343,0.112,11.250,-31.312,-21.000,3.973,28.502,13.559,0.706,0.485,0.229,0.462,1,10.301,-15.617,12.783,0.000,2,0.000000,0.000000,0.000000,0.000,0.000000,0,0,0,0,0,3,U_TURN_HDG,AP_PROT_ROLL_MAX,0.000,-30.000,0.000,4,23,40,20,ROLL_LEFT
41,2.246855,0,0.487,0.295,0.333,7.189,64.508,118.101,2.126,-0.112,0.448,11.188,-30.000,-20.625,3.973,28.477,13.585,0.707,0.484,0.228,0.463,1,9.776,-15.552,12.453,0.000,2,0.000000,0.000000,0.000000,0.000,0.000000,0,0,0,0,0,3,U_TURN_HDG,AP_PROT_ROLL_MAX,0.000,-30.000,0.000,4,23,40,20,ROLL_LEFT
42,2.301675,0,-0.141,0.295,0.064,7.197,64.456,118.079,1.007,1.455,0.560,11.625,-30.688,-19.875,3.973,28.477,13.610,0.707,0.484,0.228,0.463,1,9.909,-15.580,12.538,0.000,2,0.000000,0.000000,0.000000,0.000,0.000000,0,0,0,0,0,3,U_TURN_HDG,AP_PROT_ROLL_MAX,0.000,-30.000,0.000,4,23,40,20,ROLL_LEFT
43,2.348022,0,-0.397,-0.205,-0.192,7.182,64.498,118.000,-2.574,2.238,0.336,11.125,-30.562,-22.562,3.973,28.477,13.610,0.706,0.484,0.229,0.463,1,10.093,-15.565,12.653,0.000,2,0.000000,0.000000,0.000000,0.000,0.000000,0,0,0,0,0,3,U_TURN_HDG,AP_PROT_ROLL_MAX,0.000,-30.000,0.000,4,23,40,20,ROLL_LEFT
44,2.441490,0,0.602,0.730,0.359,7.179,64.565,117.910,6.714,0.224,0.895,11.938,-30.688,-20.188,3.973,28.477,13.585,0.706,0.484,0.230,0.464,1,9.649,-15.571,12.372,0.000,2,0.000000,0.000000,0.000000,0.000,0.000000,0,0,0,0,0,3,U_TURN_HDG,AP_PROT_ROLL_MAX,0.000,-30.000,0.000,4,23,40,20,ROLL_LEFT
45,2.500800,0,0.000,-0.910,-0.295,7.165,64.858,117.894,-3.469,0.224,-1.231,10.875,-30.312,-20.312,3.973,28.554,13.431,0.704,0.486,0.231,0.463,1,10.401,-15.580,12.845,0.000,2,0.000000,0.000000,0.000000,0.000,0.000000,0,0,0,0,0,3,U_TURN_HDG,AP_PROT_ROLL_MAX,0.000,-30.000,0.000,4,23,40,20,ROLL_LEFT
46,2.571812,0,-0.654,0.705,0.641,7.154,64.795,117.934,4.476,-1.790,0.000,11.188,-29.312,-20.312,3.947,28.528,13.482,0.705,0.485,0.231,0.463,1,9.222,-15.624,12.095,0.000,2,0.000000,0.000000,0.000000,0.000,0.000000,0,0,0,0,0,3,U_TURN_HDG,AP_PROT_ROLL_MAX,0.000,-30.000,0.000,4,23,40,20,ROLL_LEFT
47,2.617022,0,-0.525,-1.038,0.359,7.163,64.853,118.048,-3.245,-0.783,0.336,11.500,-29.312,-20.688,3.973,28.579,13.431,0.705,0.486,0.230,0.462,1,10.837,-15.576,13.111,0.000,2,0.000000,0.000000,0.000000,0.000,0.000000,0,0,0,0,0,3,U_TURN_HDG,AP_PROT_ROLL_MAX,0.000,-30.000,0.000,4,23,40,20,ROLL_LEFT
48,2.665022,0,0.231,-0.026,0.359,7.195,64.840,118.076,8.729,-0.336,0.112,10.625,-31.625,-20.250,3.973,28.554,13.431,0.705,0.486,0.230,0.462,1,10.032,-15.587,12.614,0.000,2,0.000000,0.000000,0.000000,0.000,0.000000,0,0,0,0,0,3,U_TURN_HDG,AP_PROT_ROLL_MAX,0.000,-30.000,0.000,4,23,40,20,ROLL_LEFT
49,2.708620,0,-0.141,0.551,0.192,7.194,64.918,118.081,-10.967,0.448,0.112,11.625,-31.000,-20.188,3.973,28.579,13.405,0.705,0.487,0.230,0.462,1,10.309,-15.614,12.788,0.000,2,0.000000,0.000000,0.000000,0.000,0.000000,0,0,0,0,0,3,U_TURN_HDG,AP_PROT_ROLL_MAX,0.000,-30.000,0.000,4,23,40,20,ROLL_LEFT
50,2.760930,0,-0.026,0.077,-0.871,7.190,64.980,118.116,-8.393,0.224,0.000,10.688,-29.500,-23.375,3.973,28.579,13.354,0.705,0.487,0.230,0.462,1,10.519,-15.590,12.917,0.000,2,0.000000,0.000000,0.000000,0.000,0.000000,0,0,0,0,0,3,U_TURN_HDG,AP_PROT_ROLL_MAX,0.000,-30.000,0.000,4,23,40,20,ROLL_LEFT
51,2.811355,0,0.859,-0.807,0.513,7.183,64.852,118.162,4.812,-1.119,0.000,11.500,-30.875,-22.500,3.973,28.554,13.405,0.705,0.486,0.230,0.462,1,9.882,-15.566,12.520,0.000,2,0.000000,0.000000,0.000000,0.000,0.000000,0,0,0,0,0,3,U_TURN_HDG,AP_PROT_ROLL_MAX,0.000,-30.000,0.000,4,23,40,20,ROLL_LEFT
52,2.873022,0,0.461,0.577,-0.115,7.197,64.931,118.188,0.112,-0.336,0.000,12.312,-31.688,-19.438,3.999,28.579,13.354,0.705,0.487,0.230,0.461,1,10.122,-15.580,12.671,0.000,2,0.000000,0.000000,0.000000,0.000,0.000000,0,0,0,0,0,3,U_TURN_HDG,AP_PROT_ROLL_MAX,0.000,-30.000,0.000,4,23,40,20,ROLL_LEFT
53,2.921212,0,0.103,-0.551,0.269,7.190,64.869,118.182,-0.895,1.231,0.000,11.562,-30.062,-19.938,3.973,28.579,13.405,0.705,0.486,0.230,0.462,1,10.049,-15.580,12.626,0.000,2,0.000000,0.000000,0.000000,0.000,0.000000,0,0,0,0,0,3,U_TURN_HDG,AP_PROT_ROLL_MAX,0.000,-30.000,0.000,4,23,40,20,ROLL_LEFT
54,2.968021,0,-0.141,-0.679,0.641,7.173,64.865,118.104,2.574,1.231,0.448,11.250,-30.062,-19.500,3.973,28.528,13.431,0.705,0.486,0.230,0.462,1,10.280,-15.573,12.770,0.000,2,0.000000,0.000000,0.000000,0.000,0.000000,0,0,0,0,0,3,U_TURN_HDG,AP_PROT_ROLL_MAX,0.000,-30.000,0.000,4,23,40,20,ROLL_LEFT
55,3.015519,0,-0.525,-1.128,-0.666,7.161,64.780,118.113,1.007,0.783,0.112,11.812,-29.562,-22.562,3.973,28.528,13.457,0.706,0.486,0.230,0.462,1,9.483,-15.556,12.265,0.000,2,0.000000,0.000000,0.000000,0.000,0.000000,0,0,0,0,0,3,U_TURN_HDG,AP_PROT_ROLL_MAX,0.000,-30.000,0.000,4,23,40,20,ROLL_LEFT
56,3.063649,0,1.217,0.846,1.064,7.211,64.952,118.130,-2.014,0.112,0.560,11.938,-30.312,-19.875,3.999,28.554,13.354,0.705,0.487,0.230,0.462,1,10.485,-15.551,12.896,0.000,2,0.000000,0.000000,0.000000,0.000,0.000000,0,0,0,0,0,3,U_TURN_HDG,AP_PROT_ROLL_MAX,0.000,-30.000,0.000,4,23,40,20,ROLL_LEFT
57,3.111250,0,0.602,0.525,-0.192,7.216,64.961,118.129,-6.267,0.560,-0.895,11.312,-31.625,-19.812,3.973,28.477,13.559,0.705,0.487,0.230,0.462,1,10.342,-15.552,12.808,0.000,2,0.000000,0.000000,0.000000,0.000,0.000000,0,0,0,0,0,3,U_TURN_HDG,AP_PROT_ROLL_MAX,0.000,-30.000,0.000,4,23,40,20,ROLL_LEFT
58,3.173935,0,0.103,-1.025,0.538,7.157,64.481,118.106,-4.141,0.895,-0.112,12.312,-32.000,-20.125,3.973,28.451,13.610,0.707,0.484,0.229,0.463,1,10.333,-15.531,12.802,0.000,2,0.000000,0.000000,0.000000,0.000,0.000000,0,0,0,0,0,3,U_TURN_HDG,AP_PROT_ROLL_MAX,0.000,-30.000,0.000,4,23,40,20,ROLL_LEFT
59,3.230479,0,-0.628,-1.128,-1.333,7.197,64.475,118.053,-7.162,0.783,-1.007,11.875,-29.312,-20.688,3.947,28.400,13.739,0.707,0.484,0.228,0.463,1,10.410,-15.528,12.850,0.000,2,0.000000,0.000000,0.000000,0.000,0.000000,0,0,0,0,0,3,U_TURN_HDG,AP_PROT_ROLL_MAX,0.000,-30.000,0.000,4,23,40,20,ROLL_LEFT
60,3.276022,0,-0.500,-1.538,-0.525,7.160,64.312,118.058,9.960,-0.560,1.119,11.812,-29.625,-21.812,3.973,28.425,13.636,0.707,0.483,0.228,0.463,1,10.037,-15.536,12.618,0.000,2,0.000000,0.000000,0.000000,0.000,0.000000,0,0,0,0,0,3,U_TURN_HDG,AP_PROT_ROLL_MAX,0.000,-30.000,0.000,4,23,40,20,ROLL_LEFT
61,3.331022,0,-0.269,-1.153,0.538,7.199,64.599,118.027,0.000,1.119,0.560,11.812,-29.562,-22.188,3.999,28.477,13.533,0.706,0.484,0.229,0.463,1,9.942,-15.518,12.558,0.000,2,0.000000,0.000000,0.000000,0.000,0.000000,0,0,0,0,0,3,U_TURN_HDG,AP_PROT_ROLL_MAX,0.000,-30.000,0.000,4,23,40,20,ROLL_LEFT
62,3.376022,0,0.103,-0.077,-1.397,7.182,64.524,117.952,-2.686,1.007,0.000,11.125,-31.188,-22.938,3.973,28.477,13.585,0.706,0.484,0.229,0.464,1,10.294,-15.570,12.778,0.000,2,0.000000,0.000000,0.000000,0.000,0.000000,0,0,0,0,0,3,U_TURN_HDG,AP_PROT_ROLL_MAX,0.000,-30.000,0.000,4,23,40,20,ROLL_LEFT
63,3.426022,0,-0.141,0.500,1.346,7.185,64.717,117.960,4.252,-0.560,-0.336,11.625,-31.625,-20.625,3.973,28.502,13.482,0.705,0.485,0.230,0.463,1,10.299,-15.542,12.781,0.000,2,0.000000,0.000000,0.000000,0.000,0.000000,0,0,0,0,0,3,U_TURN_HDG,AP_PROT_ROLL_MAX,0.000,-30.000,0.000,4,23,40,20,ROLL_LEFT
64,3.490811,0,0.103,0.372,0.090,7.166,64.699,117.985,0.560,-0.224,-0.224,11.250,-31.000,-20.312,3.973,28.477,13.533,0.705,0.485,0.230,0.463,1,9.971,-15.533,12.576,0.000,2,0.000000,0.000000,0.000000,0.000,0.000000,0,0,0,0,0,3,U_TURN_HDG,AP_PROT_ROLL_MAX,0.000,-30.000,0.000,4,23,40,20,ROLL_LEFT
65,3.536790,0,0.487,0.128,0.743,7.185,64.836,117.998,-2.350,-0.112,0.000,11.938,-31.625,-20.938,3.973,28.528,13.405,0.705,0.486,0.230,0.463,1,10.748,-15.534,13.057,0.000,2,0.000000,0.000000,0.000000,0.000,0.000000,0,0,0,0,0,3,U_TURN_HDG,AP_PROT_ROLL_MAX,0.000,-30.000,0.000,4,23,40,20,ROLL_LEFT
66,3.586022,0,-0.026,0.000,0.269,7.166,64.847,118.024,-0.783,0.000,-0.671,11.500,-30.000,-21.062,3.973,28.554,13.405,0.705,0.486,0.230,0.462,1,10.447,-15.541,12.873,0.000,2,0.000000,0.000000,0.000000,0.000,0.000000,0,0,0,0,0,3,U_TURN_HDG,AP_PROT_ROLL_MAX,0.000,-30.000,0.000,4,23,40,20,ROLL_LEFT
67,3.637927,0,-0.026,0.128,0.641,7.162,64.750,118.024,3.805,-0.448,0.112,11.812,-29.938,-22.500,3.973,28.528,13.457,0.705,0.485,0.230,0.463,1,9.660,-15.544,12.378,0.000,2,0.000000,0.000000,0.000000,0.000,0.000000,0,0,0,0,0,3,U_TURN_HDG,AP_PROT_ROLL_MAX,0.000,-30.000,0.000,4,23,40,20,ROLL_LEFT
68,3.701022,0,0.359,0.103,0.487,7.179,64.895,118.037,-5.371,0.336,-0.336,11.125,-29.875,-22.562,3.973,28.528,13.431,0.705,0.486,0.230,0.462,1,10.140,-15.523,12.683,0.000,2,0.000000,0.000000,0.000000,0.000,0.000000,0,0,0,0,0,3,U_TURN_HDG,AP_PROT_ROLL_MAX,0.000,-30.000,0.000,4,23,40,20,ROLL_LEFT
69,3.747022,0,0.359,-0.256,-0.295,7.158,64.815,118.048,3.917,-0.336,-0.112,12.562,-30.688,-20.562,3.947,28.528,13.431,0.705,0.486,0.230,0.462,1,10.130,-15.577,12.676,0.000,2,0.000000,0.000000,0.000000,0.000,0.000000,0,0,0,0,0,3,U_TURN_HDG,AP_PROT_ROLL_MAX,0.000,-30.000,0.000,4,23,40,20,ROLL_LEFT
70,3.797022,0,-0.243,-0.154,0.384,7.149,64.868,118.055,0.671,0.112,-0.112,12.625,-30.062,-19.500,3.947,28.554,13.405,0.705,0.486,0.230,0.462,1,10.035,-15.536,12.617,0.000,2,0.000000,0.000000,0.000000,0.000,0.000000,0,0,0,0,0,3,U_TURN_HDG,AP_PROT_ROLL_MAX,0.000,-30.000,0.000,4,23,40,20,ROLL_LEFT
71,3.871022,0,0.000,0.320,0.192,7.147,64.888,118.050,1.902,0.224,0.336,11.312,-30.688,-19.188,3.947,28.554,13.405,0.705,0.486,0.230,0.462,1,10.629,-15.551,12.984,0.000,2,0.000000,0.000000,0.000000,0.000,0.000000,0,0,0,0,0,3,U_TURN_HDG,AP_PROT_ROLL_MAX,0.000,-30.000,0.000,4,23,40,20,ROLL_LEFT
72,3.915021,0,-0.269,-0.410,0.038,7.154,64.946,118.067,-4.588,-0.560,-0.224,11.188,-30.000,-20.688,3.973,28.554,13.380,0.705,0.487,0.231,0.462,1,10.288,-15.595,12.775,0.000,2,0.000000,0.000000,0.000000,0.000,0.000000,0,0,0,0,0,3,U_TURN_HDG,AP_PROT_ROLL_MAX,0.000,-30.000,0.000,4,23,40,20,ROLL_LEFT
73,3.980795,0,0.384,0.218,0.410,7.165,64.847,118.084,-1.343,-0.112,0.671,11.938,-30.688,-19.875,3.973,28.528,13.405,0.705,0.486,0.230,0.462,1,9.565,-15.553,12.318,0.000,2,0.000000,0.000000,0.000000,0.000,0.000000,0,0,0,0,0,3,U_TURN_HDG,AP_PROT_ROLL_MAX,0.000,-30.000,0.000,4,23,40,20,ROLL_LEFT
74,4.024596,0,0.231,0.026,-0.167,7.184,64.648,118.082,-0.224,-0.224,0.112,11.500,-29.312,-21.062,3.973,28.502,13.585,0.706,0.485,0.229,0.463,1,9.927,-15.549,12.548,0.000,2,0.000000,0.000000,0.000000,0.000,0.000000,0,0,0,0,0,3,U_TURN_HDG,AP_PROT_ROLL_MAX,0.000,-30.000,0.000,4,23,40,20,ROLL_LEFT
75,4.086021,0,-0.077,-0.449,-0.577,7.177,64.545,118.079,-3.917,0.112,0.000,12.250,-30.312,-20.250,3.999,28.477,13.610,0.706,0.484,0.229,0.463,1,10.049,-15.556,12.626,0.000,2,0.000000,0.000000,0.000000,0.000,0.000000,0,0,0,0,0,3,U_TURN_HDG,AP_PROT_ROLL_MAX,0.000,-30.000,0.000,4,23,40,20,ROLL_LEFT
76,4.130031,0,-0.192,0.397,0.436,7.202,64.685,118.090,1.343,0.112,0.112,10.938,-31.312,-20.312,4.024,28.502,13.482,0.706,0.485,0.229,0.463,1,10.470,-15.532,12.887,0.000,2,0.000000,0.000000,0.000000,0.000,0.000000,0,0,0,0,0,3,U_TURN_HDG,AP_PROT_ROLL_MAX,0.000,-30.000,0.000,4,23,40,20,ROLL_LEFT
77,4.205199,0,-0.577,0.128,-0.167,7.204,64.754,118.081,3.133,0.112,-0.112,10.812,-28.688,-20.375,4.050,28.502,13.482,0.706,0.486,0.229,0.462,1,10.151,-15.544,12.689,0.000,2,0.000000,0.000000,0.000000,0.000,0.000000,0,0,0,0,0,3,U_TURN_HDG,AP_PROT_ROLL_MAX,0.000,-30.000,0.000,4,23,40,20,ROLL_LEFT
78,4.259941,0,0.000,0.218,0.192,7.201,64.797,118.083,1.119,-0.224,-0.112,11.500,-29.625,-21.500,3.947,28.579,13.457,0.705,0.486,0.230,0.462,1,9.538,-15.587,12.301,0.000,2,0.000000,0.000000,0.000000,0.000,0.000000,0,0,0,0,0,3,U_TURN_HDG,AP_PROT_ROLL_MAX,0.000,-30.000,0.000,4,23,40,20,ROLL_LEFT
79,4.315022,0,0.308,-0.231,-0.692,7.171,64.663,118.088,-3.693,0.224,-0.336,12.875,-30.312,-21.312,3.922,28.528,13.559,0.706,0.485,0.229,0.462,1,10.280,-15.573,12.770,0.000,2,0.000000,0.000000,0.000000,0.000,0.000000,0,0,0,0,0,3,U_TURN_HDG,AP_PROT_ROLL_MAX,0.000,-30.000,0.000,4,23,40,20,ROLL_LEFT
80,4.372022,0,1.012,0.154,-0.577,7.154,64.541,118.098,-0.671,-0.448,-0.783,12.688,-31.125,-19.062,3.947,28.502,13.610,0.707,0.484,0.229,0.463,1,9.840,-15.605,12.493,0.000,2,0.000000,0.000000,0.000000,0.000,0.000000,0,0,0,0,0,3,U_TURN_HDG,AP_PROT_ROLL_MAX,0.000,-30.000,0.000,4,23,40,20,ROLL_LEFT
81,4.439419,0,-0.654,-0.205,-0.090,7.145,64.583,118.138,1.679,-0.112,-0.224,11.562,-31.000,-21.000,4.101,28.502,13.508,0.707,0.484,0.229,0.462,1,10.568,-15.572,12.947,0.000,2,0.000000,0.000000,0.000000,0.000,0.000000,0,0,0,0,0,3,U_TURN_HDG,AP_PROT_ROLL_MAX,0.000,-30.000,0.000,4,23,40,20,ROLL_LEFT
82,4.487065,0,-0.782,0.654,0.384,7.169,64.723,118.148,-0.895,-0.448,-0.448,11.875,-29.312,-21.062,4.101,28.502,13.431,0.706,0.485,0.229,0.462,1,9.834,-15.582,12.490,0.000,2,0.000000,0.000000,0.000000,0.000,0.000000,0,0,0,0,0,3,U_TURN_HDG,AP_PROT_ROLL_MAX,0.000,-30.000,0.000,4,23,40,20,ROLL_LEFT
83,4.538382,0,-0.730,-0.103,0.115,7.187,64.790,118.156,-1.343,-0.448,-0.336,12.312,-31.375,-19.812,4.024,28.528,13.457,0.706,0.486,0.229,0.462,1,9.688,-15.558,12.397,0.000,2,0.000000,0.000000,0.000000,0.000,0.000000,0,0,0,0,0,3,U_TURN_HDG,AP_PROT_ROLL_MAX,0.000,-30.000,0.000,4,23,40,20,ROLL_LEFT
84,4.588810,0,-0.577,-0.256,0.090,7.192,64.758,118.189,-3.133,-0.224,0.000,11.500,-31.250,-22.875,3.947,28.477,13.508,0.706,0.486,0.229,0.462,1,10.200,-15.553,12.720,0.000,2,0.000000,0.000000,0.000000,0.000,0.000000,0,0,0,0,0,3,U_TURN_HDG,AP_PROT_ROLL_MAX,0.000,-30.000,0.000,4,23,40,20,ROLL_LEFT
85,4.632531,0,0.384,0.179,-0.090,7.188,64.616,118.203,-0.224,-0.560,-0.448,11.562,-30.250,-21.062,3.973,28.477,13.533,0.707,0.485,0.228,0.462,1,9.953,-15.539,12.565,0.000,2,0.000000,0.000000,0.000000,0.000,0.000000,0,0,0,0,0,3,U_TURN_HDG,AP_PROT_ROLL_MAX,0.000,-30.000,0.000,4,23,40,20,ROLL_LEFT
86,4.675022,0,0.231,-0.423,0.115,7.186,64.544,118.223,-1.902,-0.112,0.000,11.500,-31.875,-22.875,3.973,28.451,13.559,0.707,0.484,0.228,0.462,1,9.998,-15.549,12.593,0.000,2,0.000000,0.000000,0.000000,0.000,0.000000,0,0,0,0,0,3,U_TURN_HDG,AP_PROT_ROLL_MAX,0.000,-30.000,0.000,4,23,40,20,ROLL_LEFT
87,4.730606,0,-0.051,0.077,0.384,7.191,64.582,118.222,1.231,0.336,0.112,11.250,-30.312,-20.375,3.999,28.451,13.559,0.707,0.485,0.228,0.462,1,11.315,-15.558,13.397,0.000,2,0.000000,0.000000,0.000000,0.000,0.000000,0,0,0,0,0,3,U_TURN_HDG,AP_PROT_ROLL_MAX,0.000,-30.000,0.000,4,23,40,20,ROLL_LEFT
88,4.775022,0,-0.167,-0.051,-0.115,7.189,64.605,118.207,1.790,0.560,0.112,11.938,-30.312,-20.312,4.024,28.425,13.533,0.707,0.485,0.228,0.462,1,9.305,-15.545,12.149,0.000,2,0.000000,0.000000,0.000000,0.000,0.000000,0,0,0,0,0,3,U_TURN_HDG,AP_PROT_ROLL_MAX,0.000,-30.000,0.000,4,23,40,20,ROLL_LEFT
89,4.825894,0,-0.500,0.103,-0.243,7.188,64.664,118.178,-0.448,0.448,0.112,11.938,-29.750,-19.562,3.973,28.425,13.533,0.706,0.485,0.229,0.462,1,9.741,-15.540,12.430,0.000,2,0.000000,0.000000,0.000000,0.000,0.000000,0,0,0,0,0,3,U_TURN_HDG,AP_PROT_ROLL_MAX,0.000,-30.000,0.000,4,23,40,20,ROLL_LEFT
90,4.875022,0,-0.192,0.179,0.013,7.180,64.662,118.172,-0.112,-0.112,-0.112,11.625,-31.312,-20.625,3.896,28.477,13.533,0.706,0.485,0.229,0.462,1,9.932,-15.546,12.552,0.000,2,0.000000,0.000000,0.000000,0.000,0.000000,0,0,0,0,0,3,U_TURN_HDG,AP_PROT_ROLL_MAX,0.000,-30.000,0.000,4,23,40,20,ROLL_LEFT
91,4.930022,0,-0.013,-0.077,0.013,7.173,64.606,118.190,-0.448,-0.336,-0.224,12.250,-30.688,-19.500,3.845,28.477,13.533,0.707,0.485,0.229,0.462,1,9.552,-15.557,12.309,0.000,2,0.000000,0.000000,0.000000,0.000,0.000000,0,0,0,0,0,3,U_TURN_HDG,AP_PROT_ROLL_MAX,0.000,-30.000,0.000,4,23,40,20,ROLL_LEFT
92,4.975022,0,0.384,-0.051,-0.269,7.155,64.544,118.214,-2.126,-0.448,-0.336,11.438,-30.500,-22.938,3.845,28.477,13.533,0.707,0.484,0.228,0.462,1,10.187,-15.482,12.712,0.000,2,0.000000,0.000000,0.000000,0.000,0.000000,0,0,0,0,0,3,U_TURN_HDG,AP_PROT_ROLL_MAX,0.000,-30.000,0.000,4,23,40,20,ROLL_LEFT
93,5.025022,0,0.256,0.077,-0.141,7.144,64.554,118.227,0.000,-0.336,-0.112,11.875,-29.688,-20.688,3.845,28.451,13.559,0.707,0.484,0.228,0.462,1,9.646,-15.523,12.370,0.000,2,0.000000,0.000000,0.000000,0.000,0.000000,0,0,0,0,0,3,U_TURN_HDG,AP_PROT_ROLL_MAX,0.000,-30.000,0.000,4,23,40,20,ROLL_LEFT
94,5.075022,0,0.231,-0.051,-0.013,7.130,64.562,118.256,0.560,-0.448,-0.448,11.125,-31.188,-23.250,3.870,28.451,13.533,0.707,0.484,0.228,0.461,1,10.360,-15.520,12.820,0.000,2,0.000000,0.000000,0.000000,0.000,0.000000,0,0,0,0,0,3,U_TURN_HDG,AP_PROT_ROLL_MAX,0.000,-30.000,0.000,4,23,40,20,ROLL_LEFT
95,5.129706,0,0.077,0.026,0.064,7.116,64.604,118.303,0.112,-1.007,-0.560,11.938,-31.312,-20.938,3.870,28.502,13.482,0.707,0.485,0.228,0.461,1,9.214,-15.576,12.089,0.000,2,0.000000,0.000000,0.000000,0.000,0.000000,0,0,0,0,0,3,U_TURN_HDG,AP_PROT_ROLL_MAX,0.000,-30.000,0.000,4,23,40,20,ROLL_LEFT
96,5.178022,0,0.179,0.026,0.410,7.104,64.615,118.359,-1.007,-0.895,-0.560,12.188,-29.375,-20.000,3.896,28.502,13.508,0.707,0.485,0.228,0.461,1,10.107,-15.560,12.662,0.000,2,0.000000,0.000000,0.000000,0.000,0.000000,0,0,0,0,0,3,U_TURN_HDG,AP_PROT_ROLL_MAX,0.000,-30.000,0.000,4,23,40,20,ROLL_LEFT
97,5.252022,0,0.256,-0.077,0.231,7.105,64.552,118.399,-0.671,-0.448,0.000,11.938,-30.312,-20.312,3.922,28.477,13.533,0.708,0.485,0.228,0.461,1,10.483,-15.527,12.895,0.000,2,0.000000,0.000000,0.000000,0.000,0.000000,0,0,0,0,0,3,U_TURN_HDG,AP_PROT_ROLL_MAX,0.000,-30.000,0.000,4,23,40,20,ROLL_LEFT
98,5.319543,0,0.077,-0.051,-0.064,7.106,64.496,118.388,-0.224,0.560,0.000,11.625,-31.000,-20.250,3.999,28.451,13.610,0.708,0.484,0.228,0.461,1,9.734,-15.542,12.426,0.000,2,0.000000,0.000000,0.000000,0.000,0.000000,0,0,0,0,0,3,U_TURN_HDG,AP_PROT_ROLL_MAX,0.000,-30.000,0.000,4,23,40,20,ROLL_LEFT
99,5.384931,0,-0.192,0.077,-0.167,7.117,64.511,118.343,1.343,0.560,0.000,11.938,-31.625,-21.000,4.024,28.425,13.610,0.708,0.484,0.228,0.461,1,9.977,-15.506,12.580,0.000,2,0.000000,0.000000,0.000000,0.000,0.000000,0,0,0,0,0,3,U_TURN_HDG,AP_PROT_ROLL_MAX,0.000,-30.000,0.000,4,23,40,20,ROLL_LEFT
100,5.459702,0,-0.051,0.179,-0.115,7.127,64.587,118.313,1.231,-0.112,0.000,11.250,-30.625,-20.312,4.024,28.451,13.533,0.707,0.485,0.228,0.461,1,10.218,-15.596,12.731,0.000,2,0.000000,0.000000,0.000000,0.000,0.000000,0,0,0,0,0,3,U_TURN_HDG,AP_PROT_ROLL_MAX,0.000,-30.000,0.000,4,23,40,20,ROLL_LEFT
101,5.505022,0,0.103,0.051,0.038,7.140,64.586,118.321,-0.560,-0.448,-0.224,12.250,-31.062,-19.875,3.973,28.477,13.508,0.707,0.485,0.228,0.461,1,10.008,-15.520,12.600,0.000,2,0.000000,0.000000,0.000000,0.000,0.000000,0,0,0,0,0,3,U_TURN_HDG,AP_PROT_ROLL_MAX,0.000,-30.000,0.000,4,23,40,20,ROLL_LEFT
102,5.580022,0,0.103,-0.077,0.013,7.145,64.536,118.350,-1.455,-0.336,-0.112,11.938,-30.000,-20.312,3.973,28.477,13.533,0.708,0.485,0.228,0.461,1,10.401,-15.531,12.845,0.000,2,0.000000,0.000000,0.000000,0.000,0.000000,0,0,0,0,0,3,U_TURN_HDG,AP_PROT_ROLL_MAX,0.000,-30.000,0.000,4,23,40,20,ROLL_LEFT
103,5.649857,0,0.103,-0.077,0.115,7.149,64.485,118.370,-0.224,-0.336,-0.224,11.250,-30.625,-20.312,3.973,28.477,13.559,0.708,0.484,0.227,0.461,1,10.355,-15.523,12.816,0.000,2,0.000000,0.000000,0.000000,0.000,0.000000,0,0,0,0,0,3,U_TURN_HDG,AP_PROT_ROLL_MAX,0.000,-30.000,0.000,4,23,40,20,ROLL_LEFT
104,5.694002,0,-0.026,-0.051,-0.013,7.149,64.504,118.374,1.119,0.112,0.000,11.625,-30.062,-19.188,3.973,28.451,13.559,0.708,0.484,0.228,0.461,1,9.805,-15.542,12.472,0.000,2,0.000000,0.000000,0.000000,0.000,0.000000,0,0,0,0,0,3,U_TURN_HDG,AP_PROT_ROLL_MAX,0.000,-30.000,0.000,4,23,40,20,ROLL_LEFT
105,5.738730,0,0.103,0.051,0.013,7.150,64.559,118.364,1.343,0.224,0.112,12.188,-30.312,-21.062,3.973,28.477,13.559,0.708,0.485,0.228,0.461,1,10.214,-15.546,12.729,0.000,2,0.000000,0.000000,0.000000,0.000,0.000000,0,0,0,0,0,3,U_TURN_HDG,AP_PROT_ROLL_MAX,0.000,-30.000,0.000,4,23,40,20,ROLL_LEFT
106,5.795022,0,-0.026,-0.077,0.013,7.153,64.597,118.356,0.224,0.224,0.224,12.125,-29.938,-22.188,3.973,28.477,13.533,0.707,0.485,0.228,0.461,1,10.636,-15.523,12.989,0.000,2,0.000000,0.000000,0.000000,0.000,0.000000,0,0,0,0,0,3,U_TURN_HDG,AP_PROT_ROLL_MAX,0.000,-30.000,0.000,4,23,40,20,ROLL_LEFT
107,5.887305,0,-0.026,-0.205,-0.013,7.158,64.572,118.336,-0.671,0.224,0.112,12.188,-30.312,-20.625,3.973,28.477,13.559,0.707,0.485,0.228,0.461,1,10.285,-15.522,12.773,0.000,2,0.000000,0.000000,0.000000,0.000,0.000000,0,0,0,0,0,3,U_TURN_HDG,AP_PROT_ROLL_MAX,0.000,-30.000,0.000,4,23,40,20,ROLL_LEFT
108,5.950022,0,-0.026,0.051,-0.038,7.157,64.495,118.353,-0.560,-0.448,-0.112,11.250,-30.625,-20.312,3.973,28.477,13.585,0.708,0.484,0.228,0.461,1,10.164,-15.515,12.698,0.000,2,0.000000,0.000000,0.000000,0.000,0.000000,0,0,0,0,0,3,U_TURN_HDG,AP_PROT_ROLL_MAX,0.000,-30.000,0.000,4,23,40,20,ROLL_LEFT
109,6.019808,0,0.000,-0.077,0.141,7.159,64.502,118.369,0.448,-0.112,-0.112,11.188,-30.000,-20.688,3.947,28.477,13.559,0.708,0.484,0.227,0.461,1,10.526,-15.537,12.922,0.000,2,0.000000,0.000000,0.000000,0.000,0.000000,0,0,0,0,0,3,U_TURN_HDG,AP_PROT_ROLL_MAX,0.000,-30.000,0.000,4,23,40,20,ROLL_LEFT
110,6.063898,0,0.000,-0.051,0.115,7.158,64.550,118.373,1.119,0.224,0.000,11.125,-29.625,-21.500,3.947,28.477,13.559,0.708,0.485,0.228,0.461,1,10.705,-15.548,13.031,0.000,2,0.000000,0.000000,0.000000,0.000,0.000000,0,0,0,0,0,3,U_TURN_HDG,AP_PROT_ROLL_MAX,0.000,-30.000,0.000,4,23,40,20,ROLL_LEFT
111,6.126624,0,0.128,0.051,0.115,7.156,64.565,118.350,0.112,0.336,0.112,10.812,-31.250,-22.250,3.973,28.477,13.533,0.708,0.485,0.228,0.461,1,10.066,-15.524,12.636,0.000,2,0.000000,0.000000,0.000000,0.000,0.000000,0,0,0,0,0,3,U_TURN_HDG,AP_PROT_ROLL_MAX,0.000,-30.000,0.000,4,23,40,20,ROLL_LEFT
112,6.174022,0,-0.026,0.077,-0.038,7.159,64.550,118.344,-0.560,0.112,0.000,11.812,-30.188,-22.562,3.973,28.477,13.585,0.708,0.485,0.228,0.461,1,10.542,-15.506,12.932,0.000,2,0.000000,0.000000,0.000000,0.000,0.000000,0,0,0,0,0,3,U_TURN_HDG,AP_PROT_ROLL_MAX,0.000,-30.000,0.000,4,23,40,20,ROLL_LEFT
113,6.225517,0,-0.026,-0.051,-0.141,7.159,64.550,118.344,-0.671,0.000,-0.112,11.500,-29.625,-21.500,3.973,28.451,13.585,0.708,0.485,0.228,0.461,1,10.039,-15.559,12.619,0.000,2,0.000000,0.000000,0.000000,0.000,0.000000,0,0,0,0,0,3,U_TURN_HDG,AP_PROT_ROLL_MAX,0.000,-30.000,0.000,4,23,40,20,ROLL_LEFT
114,6.274021,0,-0.026,0.051,-0.013,7.157,64.506,118.350,0.671,-0.112,0.000,11.938,-31.000,-20.625,3.973,28.477,13.585,0.708,0.484,0.228,0.461,1,10.553,-15.528,12.938,0.000,2,0.000000,0.000000,0.000000,0.000,0.000000,0,0,0,0,0,3,U_TURN_HDG,AP_PROT_ROLL_MAX,0.000,-30.000,0.000,4,23,40,20,ROLL_LEFT
115,6.322022,0,0.000,0.051,-0.115,7.159,64.524,118.362,0.448,-0.224,-0.224,12.250,-30.688,-19.875,3.947,28.477,13.533,0.708,0.485,0.228,0.461,1,10.547,-15.529,12.935,0.000,2,0.000000,0.000000,0.000000,0.000,0.000000,0,0,0,0,0,3,U_TURN_HDG,AP_PROT_ROLL_MAX,0.000,-30.000,0.000,4,23,40,20,ROLL_LEFT
116,6.375026,0,0.000,-0.077,0.013,7.161,64.555,118.375,0.000,0.000,0.000,11.062,-29.562,-22.688,3.947,28.477,13.533,0.708,0.485,0.228,0.461,1,10.122,-15.505,12.671,0.000,2,0.000000,0.000000,0.000000,0.000,0.000000,0,0,0,0,0,3,U_TURN_HDG,AP_PROT_ROLL_MAX,0.000,-30.000,0.000,4,23,40,20,ROLL_LEFT
117,6.423022,0,0.103,0.026,0.013,7.158,64.569,118.377,-0.112,0.112,0.000,11.812,-30.188,-22.562,3.973,28.502,13.533,0.708,0.485,0.228,0.461,1,10.779,-15.498,13.076,0.000,2,0.000000,0.000000,0.000000,0.000,0.000000,0,0,0,0,0,3,U_TURN_HDG,AP_PROT_ROLL_MAX,0.000,-30.000,0.000,4,23,40,20,ROLL_LEFT
118,6.487810,0,-0.026,0.051,-0.141,7.163,64.558,118.373,-0.336,0.000,0.000,11.875,-29.688,-20.688,3.973,28.477,13.559,0.708,0.485,0.228,0.461,1,10.697,-15.501,13.026,0.000,2,0.000000,0.000000,0.000000,0.000,0.000000,0,0,0,0,0,3,U_TURN_HDG,AP_PROT_ROLL_MAX,0.000,-30.000,0.000,4,23,40,20,ROLL_LEFT
119,6.538022,0,-0.026,0.051,-0.141,7.167,64.526,118.367,-0.336,0.000,0.000,11.562,-29.312,-20.375,3.973,28.477,13.559,0.708,0.485,0.228,0.461,1,10.553,-15.478,12.938,0.000,2,0.000000,0.000000,0.000000,0.000,0.000000,0,0,0,0,0,3,U_TURN_HDG,AP_PROT_ROLL_MAX,0.000,-30.000,0.000,4,23,40,20,ROLL_LEFT
120,6.582022,0,-0.026,0.051,-0.141,7.167,64.526,118.367,0.000,0.000,0.000,11.062,-29.500,-23.375,3.973,28.477,13.559,0.708,0.485,0.228,0.461,1,10.348,-15.499,12.812,0.000,2,0.000000,0.000000,0.000000,0.000,0.000000,0,0,0,0,0,3,U_TURN_HDG,AP_PROT_ROLL_MAX,0.000,-30.000,0.000,4,23,40,20,ROLL_LEFT
121,6.651022,0,-0.141,0.051,-0.013,7.166,64.545,118.371,0.336,-0.112,0.000,11.875,-29.688,-20.375,3.973,28.477,13.533,0.708,0.485,0.228,0.461,1,10.438,-15.493,12.868,0.000,2,0.000000,0.000000,0.000000,0.000,0.000000,0,0,0,0,0,3,U_TURN_HDG,AP_PROT_ROLL_MAX,0.000,-30.000,0.000,4,23,40,20,ROLL_LEFT
122,6.707627,0,-0.026,0.051,0.141,7.171,64.561,118.378,0.448,-0.112,-0.224,12.438,-30.562,-22.875,3.973,28.477,13.533,0.708,0.485,0.228,0.461,1,10.590,-15.515,12.961,0.000,2,0.000000,0.000000,0.000000,0.000,0.000000,0,0,0,0,0,3,U_TURN_HDG,AP_PROT_ROLL_MAX,0.000,-30.000,0.000,4,23,40,20,ROLL_LEFT
123,6.767547,0,0.103,-0.077,0.013,7.174,64.555,118.384,-0.224,-0.112,0.112,12.500,-30.938,-22.125,3.973,28.477,13.533,0.708,0.485,0.228,0.461,1,9.816,-15.513,12.478,0.000,2,0.000000,0.000000,0.000000,0.000,0.000000,0,0,0,0,0,3,U_TURN_HDG,AP_PROT_ROLL_MAX,0.000,-30.000,0.000,4,23,40,20,ROLL_LEFT
124,6.817214,0,0.103,-0.077,-0.141,7.175,64.540,118.369,-0.336,0.112,0.224,11.938,-30.312,-20.625,3.973,28.477,13.533,0.708,0.485,0.228,0.461,1,10.146,-15.522,12.686,0.000,2,0.000000,0.000000,0.000000,0.000,0.000000,0,0,0,0,0,3,U_TURN_HDG,AP_PROT_ROLL_MAX,0.000,-30.000,0.000,4,23,40,20,ROLL_LEFT
125,6.865753,0,-0.026,0.051,0.013,7.180,64.537,118.372,0.112,-0.112,0.000,10.750,-30.500,-23.000,3.973,28.477,13.533,0.708,0.485,0.227,0.461,1,10.493,-15.498,12.901,0.000,2,0.000000,0.000000,0.000000,0.000,0.000000,0,0,0,0,0,3,U_TURN_HDG,AP_PROT_ROLL_MAX,0.000,-30.000,0.000,4,23,40,20,ROLL_LEFT
126,6.913012,0,-0.051,0.051,0.141,7.180,64.537,118.372,0.224,0.000,0.000,11.188,-30.250,-21.500,3.999,28.477,13.533,0.708,0.485,0.227,0.461,1,9.868,-15.520,12.511,0.000,2,0.000000,0.000000,0.000000,0.000,0.000000,0,0,0,0,0,3,U_TURN_HDG,AP_PROT_ROLL_MAX,0.000,-30.000,0.000,4,23,40,20,ROLL_LEFT
127,6.965070,0,-0.051,-0.077,0.013,7.188,64.558,118.381,1.007,-0.224,-0.224,11.000,-29.438,-24.562,3.947,28.477,13.533,0.708,0.485,0.227,0.461,1,10.146,-15.521,12.686,0.000,2,0.000000,0.000000,0.000000,0.000,0.000000,0,0,0,0,0,3,U_TURN_HDG,AP_PROT_ROLL_MAX,0.000,-30.000,0.000,4,23,40,20,ROLL_LEFT
128,7.019022,0,-0.500,-0.474,-0.243,7.184,64.571,118.383,-5.483,-0.224,-0.224,12.125,-30.250,-22.188,3.947,28.502,13.508,0.708,0.485,0.228,0.461,1,10.641,-15.521,12.992,0.000,2,0.000000,0.000000,0.000000,0.000,0.000000,0,0,0,0,0,3,U_TURN_HDG,AP_PROT_ROLL_MAX,0.000,-30.000,0.000,4,23,40,20,ROLL_LEFT
129,7.099022,0,-0.115,-0.525,-0.295,7.190,64.391,118.436,-0.671,-1.119,-0.336,11.500,-30.938,-21.875,3.947,28.451,13.610,0.708,0.484,0.227,0.461,1,10.716,-15.519,13.038,0.000,2,0.000000,0.000000,0.000000,0.000,0.000000,0,0,0,0,0,3,U_TURN_HDG,AP_PROT_ROLL_MAX,0.000,-30.000,0.000,4,23,40,20,ROLL_LEFT
130,7.169846,0,-0.243,0.128,-0.577,7.184,64.200,118.492,-2.014,-1.119,-0.783,10.812,-29.938,-21.188,3.973,28.425,13.687,0.710,0.483,0.226,0.461,1,10.825,-15.507,13.104,0.000,2,0.000000,0.000000,0.000000,0.000,0.000000,0,0,0,0,0,3,U_TURN_HDG,AP_PROT_ROLL_MAX,0.000,-30.000,0.000,4,23,40,20,ROLL_LEFT
131,7.213231,0,0.359,-0.128,0.782,7.180,64.092,118.585,-2.350,-1.455,-0.336,11.500,-29.938,-21.500,3.973,28.400,13.764,0.710,0.482,0.225,0.461,1,10.054,-15.479,12.629,0.000,2,0.000000,0.000000,0.000000,0.000,0.000000,0,0,0,0,0,3,U_TURN_HDG,AP_PROT_ROLL_MAX,0.000,-30.000,0.000,4,23,40,20,ROLL_LEFT
132,7.278836,0,0.602,-0.205,-0.397,7.190,63.970,118.655,-1.007,-0.560,0.000,11.562,-30.312,-20.688,3.973,28.349,13.815,0.711,0.482,0.224,0.460,1,10.882,-15.486,13.138,0.000,2,0.000000,0.000000,0.000000,0.000,0.000000,0,0,0,0,0,3,U_TURN_HDG,AP_PROT_ROLL_MAX,0.000,-30.000,0.000,4,23,40,20,ROLL_LEFT
133,7.322924,0,-0.026,0.179,0.333,7.181,63.865,118.626,6.491,0.783,0.448,11.938,-31.000,-21.062,3.973,28.349,13.841,0.711,0.481,0.224,0.461,1,10.260,-15.507,12.757,0.000,2,0.000000,0.000000,0.000000,0.000,0.000000,0,0,0,0,0,3,U_TURN_HDG,AP_PROT_ROLL_MAX,0.000,-30.000,0.000,4,23,40,20,ROLL_LEFT
134,7.370022,0,-0.372,-0.346,0.730,7.164,63.977,118.573,-6.491,1.567,0.112,11.938,-29.375,-20.000,3.947,28.374,13.815,0.711,0.482,0.224,0.461,1,9.940,-15.519,12.557,0.000,2,0.000000,0.000000,0.000000,0.000,0.000000,0,0,0,0,0,3,U_TURN_HDG,AP_PROT_ROLL_MAX,0.000,-30.000,0.000,4,23,40,20,ROLL_LEFT
135,7.413341,0,-1.000,-1.077,-1.077,7.160,63.924,118.558,10.855,-0.112,0.671,11.188,-30.938,-21.062,3.947,28.349,13.815,0.711,0.481,0.224,0.461,1,10.381,-15.488,12.832,0.000,2,0.000000,0.000000,0.000000,0.000,0.000000,0,0,0,0,0,3,U_TURN_HDG,AP_PROT_ROLL_MAX,0.000,-30.000,0.000,4,23,40,20,ROLL_LEFT
136,7.462914,0,0.602,-0.128,0.461,7.170,64.249,118.517,12.310,-0.560,0.448,11.750,-28.562,-22.688,3.947,28.425,13.687,0.709,0.483,0.226,0.461,1,9.937,-15.520,12.555,0.000,2,0.000000,0.000000,0.000000,0.000,0.000000,0,0,0,0,0,3,U_TURN_HDG,AP_PROT_ROLL_MAX,0.000,-30.000,0.000,4,23,40,20,ROLL_LEFT
137,7.536424,0,0.628,0.756,-0.090,7.167,64.111,118.491,4.700,-0.783,0.224,11.562,-31.312,-21.125,3.947,28.374,13.790,0.710,0.482,0.225,0.461,1,11.056,-15.499,13.243,0.000,2,0.000000,0.000000,0.000000,0.000,0.000000,0,0,0,0,0,3,U_TURN_HDG,AP_PROT_ROLL_MAX,0.000,-30.000,0.000,4,23,40,20,ROLL_LEFT
138,7.581572,0,-0.743,-0.474,0.487,7.153,64.009,118.473,10.295,0.895,0.448,12.125,-28.688,-21.188,3.947,28.349,13.841,0.710,0.482,0.225,0.461,1,10.283,-15.497,12.772,0.000,2,0.000000,0.000000,0.000000,0.000,0.000000,0,0,0,0,0,3,U_TURN_HDG,AP_PROT_ROLL_MAX,0.000,-30.000,0.000,4,23,40,20,ROLL_LEFT
139,7.631022,0,-1.000,-0.256,-0.320,7.141,64.148,118.393,4.588,2.350,0.783,12.125,-30.250,-21.750,3.947,28.400,13.739,0.709,0.482,0.226,0.461,1,11.082,-15.465,13.258,0.000,2,0.000000,0.000000,0.000000,0.000,0.000000,0,0,0,0,0,3,U_TURN_HDG,AP_PROT_ROLL_MAX,0.000,-30.000,0.000,4,23,40,20,ROLL_LEFT
140,7.673022,0,-0.115,0.551,0.487,7.136,64.158,118.368,5.260,1.343,0.560,11.250,-30.625,-20.375,3.947,28.502,13.508,0.709,0.482,0.226,0.462,1,10.035,-15.436,12.617,0.000,2,0.000000,0.000000,0.000000,0.000,0.000000,0,0,0,0,0,3,U_TURN_HDG,AP_PROT_ROLL_MAX,0.000,-30.000,0.000,4,23,40,20,ROLL_LEFT
141,7.726851,0,0.538,0.051,-0.974,7.117,64.555,118.240,-0.783,1.679,0.560,11.062,-30.500,-23.375,3.922,28.502,13.533,0.707,0.484,0.229,0.462,1,10.664,-15.463,13.006,0.000,2,0.000000,0.000000,0.000000,0.000,0.000000,0,0,0,0,0,3,U_TURN_HDG,AP_PROT_ROLL_MAX,0.000,-30.000,0.000,4,23,40,20,ROLL_LEFT
142,7.772022,0,0.538,0.474,0.038,7.115,64.885,118.209,-4.141,1.007,-0.112,11.625,-31.000,-20.250,3.922,28.554,13.380,0.706,0.486,0.230,0.461,1,10.498,-15.447,12.904,0.000,2,0.000000,0.000000,0.000000,0.000,0.000000,0,0,0,0,0,3,U_TURN_HDG,AP_PROT_ROLL_MAX,0.000,-30.000,0.000,4,23,40,20,ROLL_LEFT
143,7.832022,0,-0.115,0.756,0.871,7.102,64.722,118.177,1.902,-0.560,0.448,11.562,-29.625,-20.812,3.922,28.502,13.457,0.706,0.485,0.230,0.462,1,10.003,-15.497,12.596,0.000,2,0.000000,0.000000,0.000000,0.000,0.000000,0,0,0,0,0,3,U_TURN_HDG,AP_PROT_ROLL_MAX,0.000,-30.000,0.000,4,23,40,20,ROLL_LEFT
144,7.926878,0,-0.243,0.103,1.410,7.101,64.414,118.246,-14.436,-1.119,-1.119,11.562,-31.000,-20.688,3.922,28.477,13.533,0.708,0.483,0.228,0.462,1,10.460,-15.485,12.881,0.000,2,0.000000,0.000000,0.000000,0.000,0.000000,0,0,0,0,0,3,U_TURN_HDG,AP_PROT_ROLL_MAX,0.000,-30.000,0.000,4,23,40,20,ROLL_LEFT
145,7.987022,0,0.410,-0.474,-0.346,7.109,64.189,118.322,-4.029,0.560,-0.560,11.562,-30.312,-20.750,3.922,28.374,13.764,0.709,0.482,0.227,0.462,1,10.726,-15.466,13.044,0.000,2,0.000000,0.000000,0.000000,0.000,0.000000,0,0,0,0,0,3,U_TURN_HDG,AP_PROT_ROLL_MAX,0.000,-30.000,0.000,4,23,40,20,ROLL_LEFT
146,8.076224,0,0.077,0.525,0.308,7.077,64.192,118.273,-2.574,1.567,0.336,12.125,-29.625,-21.875,3.896,28.400,13.713,0.709,0.482,0.227,0.462,1,11.007,-15.467,13.213,0.000,2,0.000000,0.000000,0.000000,0.000,0.000000,0,0,0,0,0,3,U_TURN_HDG,AP_PROT_ROLL_MAX,0.000,-30.000,0.000,4,23,40,20,ROLL_LEFT
147,8.136869,0,-0.295,0.051,-0.654,7.056,64.124,118.154,-3.693,0.783,0.336,11.438,-29.625,-21.938,3.870,28.349,13.790,0.709,0.481,0.228,0.463,1,10.142,-15.497,12.684,0.000,2,0.000000,0.000000,0.000000,0.000,0.000000,0,0,0,0,0,3,U_TURN_HDG,AP_PROT_ROLL_MAX,0.000,-30.000,0.000,4,23,40,20,ROLL_LEFT
148,8.209393,0,-0.666,-0.243,0.205,7.020,63.798,118.098,-4.364,0.895,-0.336,12.562,-30.312,-20.625,3.870,28.297,13.892,0.710,0.479,0.227,0.464,1,10.835,-15.478,13.110,0.000,2,0.000000,0.000000,0.000000,0.000,0.000000,0,0,0,0,0,3,U_TURN_HDG,AP_PROT_ROLL_MAX,0.000,-30.000,0.000,4,23,40,20,ROLL_LEFT
149,8.252022,0,-0.525,-0.103,-0.231,6.991,63.606,118.074,-0.112,0.560,-0.224,11.125,-29.938,-21.875,3.845,28.246,14.020,0.711,0.478,0.226,0.464,1,10.659,-15.465,13.003,0.000,2,0.000000,0.000000,0.000000,0.000,0.000000,0,0,0,0,0,3,U_TURN_HDG,AP_PROT_ROLL_MAX,0.000,-30.000,0.000,4,23,40,20,ROLL_LEFT
150,8.311789,0,0.013,-0.320,-0.654,6.952,63.578,118.049,-5.931,1.007,-0.448,11.875,-30.312,-21.062,3.819,28.246,14.020,0.711,0.477,0.226,0.464,1,11.035,-15.482,13.231,0.000,2,0.000000,0.000000,0.000000,0.000,0.000000,0,0,0,0,0,3,U_TURN_HDG,AP_PROT_ROLL_MAX,0.000,-30.000,0.000,4,23,40,20,ROLL_LEFT
151,8.366493,0,0.666,-0.679,0.679,6.906,63.414,118.033,9.512,0.448,-0.336,12.500,-29.000,-20.750,3.793,28.220,14.072,0.712,0.476,0.226,0.464,1,9.955,-15.464,12.567,0.000,2,0.000000,0.000000,0.000000,0.000,0.000000,0,0,0,0,0,3,U_TURN_HDG,AP_PROT_ROLL_MAX,0.000,-30.000,0.000,4,23,40,20,ROLL_LEFT
152,8.416251,0,0.692,0.231,0.077,6.860,63.514,117.984,-3.805,1.679,0.000,12.062,-29.938,-22.562,3.793,28.220,14.072,0.711,0.477,0.227,0.464,1,9.877,-15.442,12.517,0.000,2,0.000000,0.000000,0.000000,0.000,0.000000,0,0,0,0,0,3,U_TURN_HDG,AP_PROT_ROLL_MAX,0.000,-30.000,0.000,4,23,40,20,ROLL_LEFT
153,8.458818,0,0.064,0.782,1.640,6.846,64.017,117.981,2.462,0.560,-0.112,11.750,-29.562,-23.000,3.768,28.349,13.815,0.709,0.480,0.229,0.463,1,10.773,-15.475,13.073,0.000,2,0.000000,0.000000,0.000000,0.000,0.000000,0,0,0,0,0,3,U_TURN_HDG,AP_PROT_ROLL_MAX,0.000,-30.000,0.000,4,23,40,20,ROLL_LEFT
154,8.509022,0,-0.449,0.525,-0.730,6.852,64.130,117.949,2.238,0.560,0.671,11.875,-29.625,-21.125,3.768,28.374,13.764,0.709,0.480,0.230,0.463,1,10.952,-15.461,13.181,0.000,2,0.000000,0.000000,0.000000,0.000,0.000000,0,0,0,0,0,3,U_TURN_HDG,AP_PROT_ROLL_MAX,0.000,-30.000,0.000,4,23,40,20,ROLL_LEFT
155,8.551022,0,-0.346,-1.384,-0.295,6.857,64.161,117.941,2.462,0.895,0.336,11.500,-31.250,-22.562,3.793,28.400,13.713,0.708,0.480,0.230,0.463,1,10.462,-15.459,12.882,0.000,2,0.000000,0.000000,0.000000,0.000,0.000000,0,0,0,0,0,3,U_TURN_HDG,AP_PROT_ROLL_MAX,0.000,-30.000,0.000,4,23,40,20,ROLL_LEFT
156,8.616869,0,-0.692,1.333,1.141,6.837,64.349,117.849,3.581,1.679,0.000,11.500,-31.250,-22.562,3.768,28.451,13.662,0.707,0.481,0.231,0.463,1,10.319,-15.460,12.794,0.000,2,0.000000,0.000000,0.000000,0.000,0.000000,0,0,0,0,0,3,U_TURN_HDG,AP_PROT_ROLL_MAX,0.000,-30.000,0.000,4,23,40,20,ROLL_LEFT
157,8.660535,0,0.064,-0.474,-0.269,6.823,64.056,117.748,8.505,0.783,2.126,12.625,-30.062,-19.562,3.768,28.374,13.815,0.708,0.479,0.230,0.464,1,10.317,-15.436,12.793,0.000,2,0.000000,0.000000,0.000000,0.000,0.000000,0,0,0,0,0,3,U_TURN_HDG,AP_PROT_ROLL_MAX,0.000,-30.000,0.000,4,23,40,20,ROLL_LEFT
158,8.722022,0,-0.115,1.230,1.089,6.892,64.365,117.648,-6.155,1.343,2.462,10.938,-30.688,-19.625,3.793,28.425,13.662,0.706,0.481,0.232,0.465,1,10.345,-15.451,12.810,0.000,2,0.000000,0.000000,0.000000,0.000,0.000000,0,0,0,0,0,3,U_TURN_HDG,AP_PROT_ROLL_MAX,0.000,-30.000,0.000,4,23,40,20,ROLL_LEFT
159,8.815658,0,0.461,1.910,1.743,6.990,64.250,117.549,-2.574,-0.336,0.895,11.562,-30.625,-20.750,3.845,28.425,13.713,0.706,0.481,0.231,0.466,1,10.648,-15.444,12.996,0.000,2,0.000000,0.000000,0.000000,0.000,0.000000,0,0,0,0,0,3,U_TURN_HDG,AP_PROT_ROLL_MAX,0.000,-30.000,0.000,4,23,40,20,ROLL_LEFT
160,8.876022,0,0.936,1.435,1.512,7.032,63.918,117.523,-0.560,-1.231,-0.560,12.562,-29.688,-20.312,3.870,28.349,13.867,0.707,0.479,0.229,0.467,1,10.916,-15.474,13.159,0.000,2,0.000000,0.000000,0.000000,0.000,0.000000,0,0,0,0,0,3,U_TURN_HDG,AP_PROT_ROLL_MAX,0.000,-30.000,0.000,4,23,40,20,ROLL_LEFT
161,8.928449,0,-0.167,1.025,1.512,7.024,63.960,117.592,-3.021,0.112,-0.448,11.875,-28.688,-20.062,3.870,28.374,13.892,0.707,0.479,0.229,0.466,1,10.615,-15.430,12.976,0.000,2,0.000000,0.000000,0.000000,0.000,0.000000,0,0,0,0,0,3,U_TURN_HDG,AP_PROT_ROLL_MAX,0.000,-30.000,0.000,4,23,40,20,ROLL_LEFT
162,8.975452,0,0.103,0.884,0.359,6.953,63.903,117.589,0.336,0.224,-1.007,11.375,-27.875,-22.750,3.845,28.400,13.944,0.708,0.478,0.230,0.466,1,10.592,-15.463,12.962,0.000,2,0.000000,0.000000,0.000000,0.000,0.000000,0,0,0,0,0,3,U_TURN_HDG,AP_PROT_ROLL_MAX,0.000,-30.000,0.000,4,23,40,20,ROLL_LEFT
163,9.021021,0,0.128,0.974,0.628,6.934,63.914,117.585,2.574,1.902,-1.231,10.750,-29.188,-22.375,3.819,28.400,13.918,0.708,0.478,0.230,0.466,1,10.270,-15.477,12.763,0.000,2,0.000000,0.000000,0.000000,0.000,0.000000,0,0,0,0,0,3,U_TURN_HDG,AP_PROT_ROLL_MAX,0.000,-30.000,0.000,4,23,40,20,ROLL_LEFT
164,9.097022,0,0.090,-0.654,0.936,6.833,63.905,117.526,-2.686,1.567,-1.231,12.000,-30.375,-19.250,3.793,28.451,13.918,0.708,0.478,0.231,0.466,1,10.503,-15.470,12.908,0.000,2,0.000000,0.000000,0.000000,0.000,0.000000,0,0,0,0,0,3,U_TURN_HDG,AP_PROT_ROLL_MAX,0.000,-30.000,0.000,4,23,40,20,ROLL_LEFT
165,9.165151,0,-0.615,-0.987,-0.243,6.711,64.030,117.474,1.343,2.910,-1.567,12.125,-29.000,-20.812,3.742,28.502,13.892,0.707,0.478,0.232,0.466,1,10.908,-15.452,13.154,0.000,2,0.000000,0.000000,0.000000,0.000,0.000000,0,0,0,0,0,3,U_TURN_HDG,AP_PROT_ROLL_MAX,0.000,-30.000,0.000,4,23,40,20,ROLL_LEFT
166,9.212022,0,-0.295,-0.551,-0.871,6.497,64.303,117.353,2.910,2.798,-2.014,11.875,-27.688,-19.750,3.640,28.554,13.815,0.706,0.479,0.235,0.465,1,10.566,-15.473,12.946,0.000,2,0.000000,0.000000,0.000000,0.000,0.000000,0,0,0,0,0,3,U_TURN_HDG,AP_PROT_ROLL_MAX,0.000,-30.000,0.000,4,23,40,20,ROLL_LEFT
167,9.265528,0,-0.795,-1.717,-1.128,6.328,64.274,117.217,0.895,4.588,-1.790,12.250,-27.750,-18.562,3.537,28.605,13.815,0.706,0.478,0.237,0.465,1,10.740,-15.486,13.052,0.000,2,0.000000,0.000000,0.000000,0.000,0.000000,0,0,0,0,0,3,U_TURN_HDG,AP_PROT_ROLL_MAX,0.000,-30.000,0.000,4,23,40,20,ROLL_LEFT
168,9.334947,0,-0.615,-2.397,-1.628,6.172,64.365,117.094,2.798,4.141,-2.462,11.188,-29.312,-20.375,3.383,28.656,13.764,0.706,0.477,0.239,0.465,1,10.864,-15.467,13.127,0.000,2,0.000000,0.000000,0.000000,0.000,0.000000,0,0,0,0,0,3,U_TURN_HDG,AP_PROT_ROLL_MAX,0.000,-30.000,0.000,4,23,40,20,ROLL_LEFT
169,9.395089,0,-0.103,-2.012,-1.448,5.860,64.364,116.913,6.043,3.917,-3.693,11.938,-27.438,-18.625,3.230,28.656,13.764,0.706,0.476,0.241,0.465,1,10.773,-15.499,13.073,0.000,2,0.000000,0.000000,0.000000,0.000,0.000000,0,0,0,0,0,3,U_TURN_HDG,AP_PROT_ROLL_MAX,0.000,-30.000,0.000,4,23,40,20,ROLL_LEFT
170,9.484455,0,-0.128,-1.845,-0.948,5.486,64.627,116.822,0.336,3.469,-4.812,12.875,-27.750,-18.875,3.076,28.707,13.662,0.706,0.476,0.245,0.464,1,11.007,-15.467,13.213,0.000,2,0.000000,0.000000,0.000000,0.000,0.000000,0,0,0,0,0,3,U_TURN_HDG,AP_PROT_ROLL_MAX,0.000,-30.000,0.000,4,23,40,20,ROLL_LEFT
171,9.546022,0,-0.218,-2.191,-1.653,4.976,64.700,116.750,-8.057,3.693,-6.267,12.625,-28.812,-18.125,2.768,28.733,13.610,0.706,0.474,0.249,0.462,1,10.799,-15.465,13.088,0.000,2,0.000000,0.000000,0.000000,0.000,0.000000,0,0,0,0,0,3,U_TURN_HDG,AP_PROT_ROLL_MAX,0.000,-30.000,0.000,4,23,40,20,ROLL_LEFT
172,9.616022,0,0.064,-1.166,-0.820,4.533,64.550,116.696,-2.238,4.141,-6.602,12.625,-28.812,-18.875,2.512,28.682,13.687,0.708,0.472,0.252,0.461,1,10.253,-15.458,12.753,0.000,2,0.000000,0.000000,0.000000,0.000,0.000000,0,0,0,0,0,3,U_TURN_HDG,AP_PROT_ROLL_MAX,0.000,-30.000,0.000,4,23,40,20,ROLL_LEFT
173,9.660022,0,-0.064,-0.051,-0.218,3.967,64.540,116.656,3.581,4.588,-7.386,13.625,-27.875,-17.688,2.179,28.682,13.662,0.709,0.469,0.255,0.459,1,10.539,-15.456,12.930,0.000,2,0.000000,0.000000,0.000000,0.000,0.000000,0,0,0,0,0,3,U_TURN_HDG,AP_PROT_ROLL_MAX,0.000,-30.000,0.000,4,23,40,20,ROLL_LEFT
174,9.714031,0,0.243,0.449,1.192,3.529,64.562,116.615,5.260,3.805,-8.169,13.688,-28.875,-17.312,1.922,28.707,13.662,0.710,0.468,0.258,0.458,1,10.832,-15.453,13.108,0.000,2,0.000000,0.000000,0.000000,0.000,0.000000,0,0,0,0,0,3,U_TURN_HDG,AP_PROT_ROLL_MAX,0.000,-30.000,0.000,4,23,40,20,ROLL_LEFT
175,9.765863,0,-0.205,1.205,0.038,2.970,64.607,116.614,-9.176,4.700,-8.393,13.938,-27.562,-17.312,1.640,28.707,13.636,0.712,0.466,0.262,0.456,1,9.829,-15.484,12.487,0.000,2,0.000000,0.000000,0.000000,0.000,0.000000,0,0,0,0,0,3,U_TURN_HDG,AP_PROT_ROLL_MAX,0.000,-30.000,0.000,4,23,40,20,ROLL_LEFT
176,9.831022,0,0.064,1.000,0.961,2.595,64.450,116.595,1.455,4.252,-8.393,15.250,-28.562,-18.312,1.384,28.656,13.713,0.713,0.464,0.264,0.455,1,10.212,-15.472,12.728,0.000,2,0.000000,0.000000,0.000000,0.000,0.000000,0,0,0,0,0,3,U_TURN_HDG,AP_PROT_ROLL_MAX,0.000,-30.000,0.000,4,23,40,20,ROLL_LEFT
177,9.884860,0,0.013,0.871,0.590,1.918,64.471,116.589,0.671,4.364,-8.729,14.875,-27.250,-18.062,1.000,28.682,13.687,0.715,0.461,0.268,0.452,1,9.644,-15.499,12.369,0.000,2,0.000000,0.000000,0.000000,0.000,0.000000,0,0,0,0,0,3,U_TURN_HDG,AP_PROT_ROLL_MAX,0.000,-30.000,0.000,4,23,40,20,ROLL_LEFT
178,9.942999,0,0.064,0.846,0.730,1.030,64.528,116.594,0.336,4.141,-9.064,15.438,-27.438,-21.000,0.769,28.656,13.713,0.717,0.458,0.274,0.448,1,10.766,-15.452,13.068,0.000,2,0.000000,0.000000,0.000000,0.000,0.000000,0,0,0,0,0,3,U_TURN_HDG,AP_PROT_ROLL_MAX,0.000,-30.000,0.000,4,23,40,20,ROLL_LEFT
179,9.988022,0,-0.128,1.102,0.487,0.828,64.530,116.598,-1.567,4.141,-9.288,15.500,-28.125,-20.625,0.564,28.682,13.687,0.717,0.457,0.275,0.448,1,10.090,-15.466,12.651,0.000,2,0.000000,0.000000,0.000000,0.000,0.000000,0,0,0,0,0,3,U_TURN_HDG,AP_PROT_ROLL_MAX,0.000,-30.000,0.000,4,23,40,20,ROLL_LEFT
180,10.031022,0,-0.051,0.346,-0.423,0.720,64.518,116.601,0.783,4.252,-8.729,15.938,-27.625,-17.188,0.179,28.682,13.713,0.718,0.457,0.276,0.447,1,9.914,-15.454,12.540,0.000,2,0.000000,0.000000,0.000000,0.000,0.000000,0,0,0,0,0,3,U_TURN_HDG,AP_PROT_ROLL_MAX,0.000,-30.000,0.000,4,23,40,20,ROLL_LEFT
181,10.080021,0,0.103,-0.051,0.756,-0.068,64.579,116.617,1.679,4.029,-8.952,17.062,-25.875,-20.625,-0.103,28.707,13.636,0.719,0.454,0.281,0.444,1,10.294,-15.444,12.778,0.000,2,0.000000,0.000000,0.000000,0.000,0.000000,0,0,0,0,0,3,U_TURN_HDG,AP_PROT_ROLL_MAX,0.000,-30.000,0.000,4,23,40,20,ROLL_LEFT
182,10.154090,0,-0.308,-0.910,-0.769,-0.562,64.524,116.604,-0.560,4.588,-8.841,17.000,-27.688,-17.125,-0.590,28.682,13.687,0.721,0.452,0.284,0.442,1,10.333,-15.430,12.802,0.000,2,0.000000,0.000000,0.000000,0.000,0.000000,0,0,0,0,0,3,U_TURN_HDG,AP_PROT_ROLL_MAX,0.000,-30.000,0.000,4,23,40,20,ROLL_LEFT
183,10.199022,0,0.013,-0.782,-0.269,-1.257,64.512,116.567,1.231,4.924,-8.505,18.250,-26.688,-17.875,-0.718,28.682,13.687,0.722,0.449,0.288,0.440,1,10.563,-15.448,12.944,0.000,2,0.000000,0.000000,0.000000,0.000,0.000000,0,0,0,0,0,3,U_TURN_HDG,AP_PROT_ROLL_MAX,0.000,-30.000,0.000,4,23,40,20,ROLL_LEFT
184,10.255023,0,-0.500,-1.166,-0.743,-1.356,64.519,116.560,1.679,4.924,-8.729,17.625,-27.375,-16.750,-1.051,28.682,13.636,0.723,0.449,0.289,0.439,1,10.501,-15.471,12.906,0.000,2,0.000000,0.000000,0.000000,0.000,0.000000,0,0,0,0,0,3,U_TURN_HDG,AP_PROT_ROLL_MAX,0.000,-30.000,0.000,4,23,40,20,ROLL_LEFT
185,10.301021,0,-0.397,-1.282,-0.474,-2.347,64.718,116.475,2.350,4.812,-8.729,18.312,-26.438,-16.750,-1.282,28.682,13.559,0.724,0.446,0.296,0.435,1,10.625,-15.427,12.982,0.000,2,0.000000,0.000000,0.000000,0.000,0.000000,0,0,0,0,0,3,U_TURN_HDG,AP_PROT_ROLL_MAX,0.000,-30.000,0.000,4,23,40,20,ROLL_LEFT
186,10.344477,0,-0.436,-0.128,-0.641,-2.737,64.748,116.455,1.007,4.588,-8.505,17.875,-26.938,-18.625,-1.538,28.682,13.533,0.725,0.444,0.299,0.434,1,10.613,-15.456,12.975,0.000,2,0.000000,0.000000,0.000000,0.000,0.000000,0,0,0,0,0,3,U_TURN_HDG,AP_PROT_ROLL_MAX,0.000,-30.000,0.000,4,23,40,20,ROLL_LEFT
187,10.390022,0,-0.128,-0.231,-0.577,-3.131,64.597,116.418,0.224,4.476,-8.281,19.500,-26.062,-18.562,-1.820,28.630,13.610,0.726,0.442,0.301,0.433,1,10.641,-15.421,12.992,0.000,2,0.000000,0.000000,0.000000,0.000,0.000000,0,0,0,0,0,3,U_TURN_HDG,AP_PROT_ROLL_MAX,0.000,-30.000,0.000,4,23,40,20,ROLL_LEFT
188,10.466352,0,-0.154,0.551,-0.013,-3.703,64.606,116.410,0.112,4.029,-8.505,19.250,-26.062,-17.062,-2.025,28.630,13.585,0.727,0.440,0.305,0.430,1,10.309,-15.414,12.788,0.000,2,0.000000,0.000000,0.000000,0.000,0.000000,0,0,0,0,0,3,U_TURN_HDG,AP_PROT_ROLL_MAX,0.000,-30.000,0.000,4,23,40,20,ROLL_LEFT
189,10.509627,0,-0.026,0.551,0.384,-4.266,64.707,116.426,-2.126,3.581,-8.505,20.312,-27.125,-16.938,-2.435,28.605,13.533,0.728,0.438,0.308,0.428,1,10.413,-15.402,12.852,0.000,2,0.000000,0.000000,0.000000,0.000,0.000000,0,0,0,0,0,3,U_TURN_HDG,AP_PROT_ROLL_MAX,0.000,-30.000,0.000,4,23,40,20,ROLL_LEFT
190,10.575657,0,-0.090,1.077,0.936,-4.809,64.759,116.477,1.455,2.798,-8.393,19.938,-25.188,-15.938,-2.640,28.579,13.508,0.729,0.436,0.312,0.425,1,10.763,-15.453,13.066,0.000,2,0.000000,0.000000,0.000000,0.000,0.000000,0,0,0,0,0,3,U_TURN_HDG,AP_PROT_ROLL_MAX,0.000,-30.000,0.000,4,23,40,20,ROLL_LEFT
191,10.619022,0,-0.487,0.756,0.231,-5.240,64.576,116.515,3.245,2.462,-7.722,20.250,-25.500,-16.688,-2.948,28.528,13.559,0.731,0.433,0.314,0.424,1,10.501,-15.421,12.906,0.000,2,0.000000,0.000000,0.000000,0.000,0.000000,0,0,0,0,0,3,U_TURN_HDG,AP_PROT_ROLL_MAX,0.000,-30.000,0.000,4,23,40,20,ROLL_LEFT
192,10.672910,0,-0.064,1.153,0.641,-5.647,64.625,116.563,-5.931,2.910,-7.162,21.250,-25.562,-16.250,-3.281,28.477,13.585,0.732,0.432,0.316,0.421,1,10.082,-15.443,12.646,0.000,2,0.000000,0.000000,0.000000,0.000,0.000000,0,0,0,0,0,3,U_TURN_HDG,AP_PROT_ROLL_MAX,0.000,-30.000,0.000,4,23,40,20,ROLL_LEFT
193,10.718022,0,0.064,0.295,-0.038,-6.030,64.549,116.595,3.357,2.574,-6.938,20.562,-25.125,-17.375,-3.383,28.502,13.559,0.733,0.430,0.318,0.420,1,10.705,-15.424,13.031,0.000,2,0.000000,0.000000,0.000000,0.000,0.000000,0,0,0,0,0,3,U_TURN_HDG,AP_PROT_ROLL_MAX,0.000,-30.000,0.000,4,23,40,20,ROLL_LEFT
194,10.764835,0,0.205,-0.359,-0.013,-6.108,64.586,116.598,0.560,2.350,-6.826,22.250,-25.875,-16.562,-3.563,28.477,13.559,0.733,0.430,0.319,0.419,1,10.701,-15.425,13.028,0.000,2,0.000000,0.000000,0.000000,0.000,0.000000,0,0,0,0,0,3,U_TURN_HDG,AP_PROT_ROLL_MAX,0.000,-30.000,0.000,4,23,40,20,ROLL_LEFT
195,10.810022,0,0.000,-0.474,0.308,-6.675,64.659,116.651,3.357,2.238,-6.602,22.188,-24.875,-17.375,-3.742,28.477,13.482,0.734,0.429,0.322,0.416,1,10.415,-15.426,12.853,0.000,2,0.000000,0.000000,0.000000,0.000,0.000000,0,0,0,0,0,3,U_TURN_HDG,AP_PROT_ROLL_MAX,0.000,-30.000,0.000,4,23,40,20,ROLL_LEFT
196,10.868664,0,-0.115,-0.308,-0.718,-7.002,64.583,116.672,-3.917,2.574,-6.043,21.875,-25.812,-17.688,-3.896,28.451,13.533,0.735,0.427,0.324,0.415,1,10.112,-15.408,12.665,0.000,2,0.000000,0.000000,0.000000,0.000,0.000000,0,0,0,0,0,3,U_TURN_HDG,AP_PROT_ROLL_MAX,0.000,-30.000,0.000,4,23,40,20,ROLL_LEFT
197,10.923786,0,-0.372,-0.782,-0.090,-7.370,64.580,116.698,1.119,2.574,-5.148,21.688,-25.875,-15.438,-4.204,28.451,13.482,0.736,0.425,0.326,0.413,1,10.169,-15.414,12.701,0.000,2,0.000000,0.000000,0.000000,0.000,0.000000,0,0,0,0,0,3,U_TURN_HDG,AP_PROT_ROLL_MAX,0.000,-30.000,0.000,4,23,40,20,ROLL_LEFT
198,11.003559,0,-0.436,-0.782,-0.718,-7.654,64.699,116.707,1.679,2.014,-4.812,22.250,-24.625,-15.062,-4.280,28.451,13.431,0.736,0.425,0.328,0.412,1,10.319,-15.459,12.794,0.000,2,0.000000,0.000000,0.000000,0.000,0.000000,0,0,0,0,0,3,U_TURN_HDG,AP_PROT_ROLL_MAX,0.000,-30.000,0.000,4,23,40,20,ROLL_LEFT
199,11.065022,0,-0.423,0.410,-0.513,-8.054,64.875,116.697,4.364,2.238,-4.029,23.438,-25.375,-13.875,-3.999,27.836,13.226,0.736,0.424,0.331,0.410,1,10.490,-15.450,12.899,0.000,2,0.000000,0.000000,0.000000,0.000,0.000000,0,0,0,0,0,3,U_TURN_HDG,AP_PROT_ROLL_MAX,0.000,-30.000,0.000,4,23,40,20,ROLL_LEFT
200,11.110376,0,-0.320,0.013,0.320,-8.272,65.035,116.678,0.112,2.686,-3.469,22.625,-24.625,-14.688,-4.204,27.887,13.098,0.736,0.424,0.333,0.408,1,10.267,-15.429,12.762,0.000,2,0.000000,0.000000,0.000000,0.000,0.000000,0,0,0,0,0,3,U_TURN_HDG,AP_PROT_ROLL_MAX,0.000,-30.000,0.000,4,23,40,20,ROLL_LEFT
