Line_Num,ESP32_Time_s,ID0_IMU,LinAcc_x,LinAcc_y,LinAcc_z,Pitch,Roll,Yaw,Gyro_x,Gyro_y,Gyro_z,Magnet_uT_x,Magnet_uT_y,Magnet_uT_z,Grav_x,Grav_y,Grav_z,Quat_re,Quat_i,Quat_j,Quat_k,ID1_ASPD,RawPress_Pa,temp_C,RawAirspeed,CorrAirspeed,ID2_GPS,latitude,longitude,heading,gnd_speed,altitude,hours,mins,secs,hundredths,satellites,ID3_AP,Flight_Phase,AP_Mode,AP_HDG,AP_ROLL_TGT,AP_PITCH_TGT,ID4_SERVO,servo_L_angle,servo_R_angle,servo_Angle_TGT,servo_Action_TGT
1,0.032957,0,3.435,2.127,2.576,16.198,-1.632,110.600,39.055,-25.291,8.057,-31.875,5.125,22.375,9.022,-0.743,30.989,0.815,0.069,-0.124,0.562,1,-37.534,-17.520,-24.400,0.000,2,0.000000,0.000000,0.000000,0.000,0.000000,0,0,0,0,0,3,U_TURN_HDG,AP_HDG_SEL_IMU,290.600,-30.000,0.000,4,23,40,20,ROLL_LEFT
2,0.088156,0,-0.461,-0.987,2.397,16.877,-1.392,110.258,-28.872,5.595,0.671,-31.875,5.125,22.375,9.279,-0.769,30.912,0.812,0.074,-0.127,0.564,1,-38.951,-17.468,-24.857,0.000,2,41.519650,-86.239960,120.610001,2.329,244.699997,18,53,16,36,12,3,U_TURN_HDG,AP_HDG_SEL_IMU,290.600,-30.000,0.000,4,23,40,20,ROLL_LEFT
3,0.150021,0,1.948,1.423,5.652,14.616,-1.211,110.804,11.638,70.053,-14.324,-31.875,5.125,22.375,7.587,-0.564,31.347,0.817,0.064,-0.111,0.562,1,-36.796,-17.484,-24.160,0.000,2,41.519650,-86.239960,119.559998,2.331,244.699997,18,53,16,40,12,3,U_TURN_HDG,AP_HDG_SEL_IMU,290.600,30.000,0.000,4,-17,0,20,ROLL_RIGHT
4,0.204134,0,-4.229,-0.359,-15.533,11.526,-1.243,111.159,-17.345,1.007,7.498,-31.875,5.125,22.375,6.382,-0.692,31.655,0.821,0.048,-0.089,0.561,1,-36.580,-17.491,-24.089,0.000,2,41.519650,-86.239960,118.120003,2.393,244.800003,18,53,16,48,12,3,U_TURN_HDG,AP_HDG_SEL_IMU,290.600,30.000,0.000,4,-17,0,20,ROLL_RIGHT
5,0.311398,0,5.139,6.100,-10.112,11.195,-0.757,110.859,46.777,66.360,43.419,-31.875,5.125,22.375,5.511,0.103,31.783,0.820,0.050,-0.084,0.564,1,-38.084,-17.467,-24.578,0.000,2,41.519650,-86.239960,120.730003,2.809,244.699997,18,53,16,60,12,3,U_TURN_HDG,AP_HDG_SEL_IMU,290.600,30.000,0.000,4,-17,0,20,ROLL_RIGHT
6,0.386636,0,2.614,3.473,-2.845,6.264,1.258,110.818,9.176,13.764,-14.548,-31.875,5.125,22.375,3.563,1.179,32.014,0.822,0.040,-0.039,0.567,1,-37.475,-17.545,-24.381,0.000,2,41.519650,-86.239960,125.959999,2.792,244.699997,18,53,16,68,12,3,U_TURN_HDG,AP_HDG_SEL_IMU,290.600,30.000,0.000,4,-17,0,20,ROLL_RIGHT
7,0.460012,0,-0.846,0.359,-1.845,4.543,2.860,111.553,5.036,21.150,-6.491,-31.875,5.125,22.375,1.717,2.153,32.116,0.825,0.043,-0.019,0.563,1,-38.364,-17.451,-24.669,0.000,2,41.519650,-86.239960,128.240005,2.709,244.699997,18,53,16,72,12,3,U_TURN_HDG,AP_HDG_SEL_IMU,290.600,30.000,0.000,4,-17,0,20,ROLL_RIGHT
8,0.513034,0,-0.384,1.499,-1.538,0.455,5.071,111.894,27.193,30.662,-11.302,-31.875,5.125,22.375,0.026,3.025,32.091,0.828,0.039,0.021,0.560,1,-36.004,-17.493,-23.898,0.000,2,41.519650,-86.239960,129.389999,2.354,244.699997,18,53,16,80,12,3,U_TURN_HDG,AP_HDG_SEL_IMU,290.600,30.000,0.000,4,-17,0,20,ROLL_RIGHT
9,0.579013,0,-0.500,2.115,-2.191,-0.738,6.330,112.185,17.681,7.274,-9.624,-31.875,5.125,22.375,-0.513,3.717,32.014,0.829,0.042,0.036,0.557,1,-37.400,-17.537,-24.357,0.000,2,41.519650,-86.239960,129.130005,2.186,244.800003,18,53,16,84,12,3,U_TURN_HDG,AP_HDG_SEL_IMU,290.600,30.000,0.000,4,-17,0,20,ROLL_RIGHT
10,0.678413,0,0.525,2.743,-0.179,-1.389,7.951,112.737,17.793,-14.324,-8.841,-31.875,5.125,22.375,-0.641,4.921,31.860,0.831,0.051,0.048,0.552,1,-36.274,-17.457,-23.987,0.000,2,41.519650,-86.239960,127.660004,1.781,244.899994,18,53,16,96,12,3,U_TURN_HDG,AP_HDG_SEL_IMU,290.600,30.000,0.000,4,-17,0,20,ROLL_RIGHT
11,0.739017,0,-5.024,6.228,-2.896,-0.724,9.247,113.649,30.326,0.783,-5.931,-31.875,5.125,22.375,-0.487,5.511,31.758,0.835,0.064,0.049,0.545,1,-36.714,-17.467,-24.133,0.000,2,41.519650,-86.239960,128.660004,1.673,244.899994,18,53,17,0,12,3,U_TURN_HDG,AP_HDG_SEL_IMU,290.600,30.000,0.000,4,-17,0,20,ROLL_RIGHT
12,0.795616,0,-2.717,0.846,-1.961,-0.689,11.578,114.872,39.503,-18.129,-38.160,-31.875,5.125,22.375,-0.410,6.818,31.501,0.839,0.082,0.059,0.535,1,-37.367,-17.479,-24.346,0.000,2,41.519650,-86.239960,133.699997,1.566,244.899994,18,53,17,8,12,3,U_TURN_HDG,AP_HDG_SEL_IMU,290.600,30.000,0.000,4,-15,2,18,ROLL_RIGHT
13,0.871929,0,3.627,4.319,3.524,0.280,12.802,117.107,2.574,-23.724,-25.179,-31.875,5.125,22.375,0.410,7.638,31.271,0.848,0.096,0.056,0.519,1,-37.208,-17.446,-24.294,0.000,2,41.519650,-86.239960,136.210007,1.485,244.899994,18,53,17,12,12,3,U_TURN_HDG,AP_HDG_SEL_IMU,290.600,30.000,0.000,4,-14,3,17,ROLL_RIGHT
14,0.928462,0,-4.434,3.140,4.088,2.295,14.465,119.132,-16.003,-28.424,-27.305,-31.875,5.125,22.375,1.307,8.176,31.117,0.854,0.119,0.047,0.505,1,-37.139,-17.458,-24.272,0.000,2,41.519650,-86.239960,0.000000,1.246,244.899994,18,53,17,20,12,3,U_TURN_HDG,AP_HDG_SEL_IMU,290.600,30.000,0.000,4,-13,4,16,ROLL_RIGHT
15,1.027497,0,8.510,-4.870,-3.832,2.951,13.313,121.255,-10.407,-30.215,-34.019,-31.875,5.125,22.375,1.640,7.536,31.271,0.864,0.114,0.035,0.490,1,-37.932,-17.457,-24.530,0.000,2,41.519650,-86.239960,0.000000,1.006,244.899994,18,53,17,32,12,3,U_TURN_HDG,AP_HDG_SEL_IMU,290.600,30.000,0.000,4,-14,3,17,ROLL_RIGHT
16,1.078744,0,9.932,-5.267,-3.358,8.565,11.667,125.688,-9.064,-82.363,-13.317,-31.875,5.125,22.375,4.716,6.664,31.168,0.879,0.124,-0.020,0.460,1,-38.144,-17.442,-24.598,0.000,2,41.519650,-86.239960,0.000000,0.925,244.899994,18,53,17,36,12,3,U_TURN_HDG,AP_HDG_SEL_IMU,290.600,30.000,0.000,4,-15,2,18,ROLL_RIGHT
17,1.150861,0,-5.165,4.806,2.230,11.877,10.545,127.578,-1.455,-59.310,-25.403,-31.875,5.125,22.375,6.152,6.331,30.989,0.884,0.128,-0.052,0.446,1,-36.846,-17.447,-24.176,0.000,2,41.519650,-86.239960,0.000000,0.884,244.899994,18,53,17,44,12,3,U_TURN_HDG,AP_HDG_SEL_IMU,290.600,30.000,0.000,4,-16,1,19,ROLL_RIGHT
18,1.224619,0,-6.280,-0.846,5.511,13.280,7.768,129.988,-99.708,2.014,-52.708,-31.875,5.125,22.375,7.331,2.819,31.296,0.895,0.110,-0.076,0.426,1,-37.304,-17.494,-24.325,0.000,2,41.519650,-86.239960,0.000000,1.001,245.000000,18,53,17,52,12,3,U_TURN_HDG,AP_HDG_SEL_IMU,290.600,30.000,0.000,4,-17,0,20,ROLL_RIGHT
19,1.303889,0,2.538,-6.869,-0.923,13.547,4.201,135.805,-95.008,-4.812,-79.117,-31.875,5.125,22.375,7.536,1.461,31.347,0.918,0.078,-0.096,0.377,1,-36.422,-17.467,-24.036,0.000,2,41.519650,-86.239960,0.000000,1.050,245.000000,18,53,17,60,12,3,U_TURN_HDG,AP_HDG_SEL_IMU,290.600,30.000,0.000,4,-17,0,20,ROLL_RIGHT
20,1.431899,0,-0.833,-3.870,-0.243,12.878,3.410,141.707,-34.355,-28.984,-95.679,-31.875,5.125,22.375,7.587,2.691,31.219,0.937,0.065,-0.096,0.329,1,-36.476,-17.423,-24.054,0.000,2,41.519650,-86.239960,0.000000,0.883,245.100006,18,53,17,72,12,3,U_TURN_HDG,AP_HDG_SEL_IMU,290.600,30.000,0.000,4,-17,0,20,ROLL_RIGHT
21,1.487404,0,-8.676,3.178,-1.999,18.753,10.268,156.132,17.345,-70.613,-100.156,-31.875,5.125,22.375,10.483,6.049,29.886,0.958,0.120,-0.141,0.217,1,-37.205,-17.444,-24.293,0.000,2,41.519650,-86.239952,0.000000,0.891,245.199997,18,53,17,76,12,3,U_TURN_HDG,AP_HDG_SEL_IMU,290.600,30.000,0.000,4,-17,0,20,ROLL_RIGHT
22,1.561017,0,-10.355,1.089,0.564,23.272,11.536,162.274,-51.589,-121.194,-64.682,-31.875,5.125,22.375,12.585,6.203,29.015,0.960,0.128,-0.183,0.170,1,-37.856,-17.445,-24.505,0.000,2,41.519650,-86.239952,0.000000,0.925,245.199997,18,53,17,84,12,3,U_TURN_HDG,AP_PROT_PITCH_MAX,290.600,30.000,-20.000,4,-17,40,20,PITCH_NOSE_DOWN
23,1.627929,0,15.007,-7.382,1.192,33.123,10.419,167.316,-76.432,-221.462,-74.082,-31.875,5.125,22.375,20.070,4.998,24.709,0.946,0.118,-0.273,0.131,1,-38.568,-17.425,-24.734,0.000,2,41.519650,-86.239952,0.000000,0.923,245.300003,18,53,17,92,12,3,U_TURN_HDG,AP_PROT_PITCH_MAX,290.600,30.000,-20.000,4,-17,40,20,PITCH_NOSE_DOWN
24,1.704230,0,8.510,6.715,8.138,42.808,12.133,176.400,-77.775,-79.006,-75.760,-31.875,5.125,22.375,22.043,5.229,22.915,0.924,0.110,-0.360,0.068,1,-36.989,-17.442,-24.223,0.000,2,41.519650,-86.239952,0.000000,0.974,245.300003,18,53,18,0,12,3,U_TURN_HDG,AP_PROT_PITCH_MAX,290.600,30.000,-20.000,4,-17,40,20,PITCH_NOSE_DOWN
25,1.904143,0,-0.436,-3.281,-5.895,44.755,10.096,182.815,-142.232,34.467,-92.210,-31.875,5.125,22.375,22.069,3.153,23.376,0.922,0.072,-0.381,0.011,1,-35.994,-17.472,-23.895,0.000,2,41.519646,-86.239952,0.000000,0.962,245.500000,18,53,18,20,12,3,U_TURN_HDG,AP_PROT_PITCH_MAX,290.600,30.000,-20.000,4,-17,40,20,PITCH_NOSE_DOWN
26,2.006815,0,2.589,3.422,4.434,42.092,7.060,193.243,-86.839,-58.639,-57.855,-31.875,5.125,22.375,23.299,1.487,22.453,0.928,0.016,-0.363,-0.085,1,-36.994,-17.452,-24.224,0.000,2,41.519646,-86.239952,0.000000,0.700,245.500000,18,53,18,28,12,3,U_TURN_HDG,AP_PROT_PITCH_MAX,290.600,30.000,-20.000,4,-17,40,20,PITCH_NOSE_DOWN
27,2.070830,0,4.434,0.538,3.076,47.130,2.103,217.133,-96.463,41.517,-58.191,-31.875,5.125,22.375,23.735,0.974,22.069,0.871,-0.111,-0.384,-0.285,1,-43.918,-17.451,-26.394,0.000,2,41.519646,-86.239952,0.000000,0.520,245.600006,18,53,18,36,12,3,U_TURN_HDG,AP_PROT_PITCH_MAX,290.600,30.000,-20.000,4,-17,40,20,PITCH_NOSE_DOWN
28,2.144104,0,3.563,3.640,-1.333,45.033,0.880,220.257,-70.613,68.710,-59.086,-31.875,5.125,22.375,22.120,0.384,23.812,0.868,-0.125,-0.362,-0.315,1,-36.264,-17.434,-23.984,0.000,2,41.519646,-86.239952,0.000000,0.361,245.699997,18,53,18,44,12,3,U_TURN_HDG,AP_PROT_PITCH_MAX,290.600,30.000,-20.000,4,-17,40,20,PITCH_NOSE_DOWN
29,2.264174,0,2.819,1.602,-1.743,39.157,-0.804,226.484,-58.527,107.765,-53.715,-31.875,5.125,22.375,19.557,-0.308,26.016,0.865,-0.138,-0.305,-0.374,1,-36.550,-17.431,-24.078,0.000,2,41.519646,-86.239952,0.000000,0.157,245.899994,18,53,18,56,12,3,U_TURN_HDG,AP_PROT_PITCH_MAX,290.600,30.000,-20.000,4,-17,40,20,PITCH_NOSE_DOWN
30,2.345401,0,3.012,-1.397,-3.281,30.656,-2.685,231.512,-27.417,67.591,-34.579,-31.875,5.125,22.375,14.636,-1.487,29.092,0.866,-0.135,-0.228,-0.425,1,-36.626,-17.439,-24.103,0.000,2,41.519646,-86.239952,0.000000,0.174,245.899994,18,53,18,64,12,3,U_TURN_HDG,AP_PROT_PITCH_MAX,290.600,30.000,-20.000,4,-17,40,20,PITCH_NOSE_DOWN
31,2.429920,0,4.268,0.269,-3.524,22.362,-4.012,236.932,-28.536,45.546,-15.555,-31.875,5.125,22.375,12.175,-1.948,30.220,0.859,-0.123,-0.154,-0.473,1,-36.677,-17.395,-24.120,0.000,2,41.519646,-86.239952,0.000000,0.294,246.000000,18,53,18,72,12,3,U_TURN_HDG,AP_PROT_PITCH_MAX,290.600,30.000,-20.000,4,-17,40,20,PITCH_NOSE_DOWN
32,2.587847,0,5.818,0.269,-3.230,18.820,-4.903,238.448,-11.526,46.329,-17.793,-31.875,5.125,22.375,9.740,-2.384,31.091,0.857,-0.117,-0.122,-0.487,1,-36.915,-17.437,-24.198,0.000,2,41.519646,-86.239952,0.000000,0.738,246.300003,18,53,18,88,12,3,U_TURN_HDG,AP_HDG_SEL_IMU,290.600,30.000,-20.000,4,-17,0,20,ROLL_RIGHT
33,2.669022,0,1.999,-1.833,4.242,15.148,-5.635,239.857,5.931,20.255,-13.541,-31.875,5.125,22.375,6.972,-2.281,31.783,0.855,-0.108,-0.090,-0.500,1,-38.930,-17.430,-24.850,0.000,2,41.519646,-86.239952,0.000000,0.785,246.300003,18,53,18,92,12,3,U_TURN_HDG,AP_HDG_SEL_IMU,290.600,30.000,-20.000,4,-17,0,20,ROLL_RIGHT
34,2.728139,0,4.332,-0.743,-4.396,11.046,-5.754,242.408,-3.581,3.021,-11.638,-31.875,5.125,22.375,6.587,-2.896,31.809,0.848,-0.093,-0.056,-0.519,1,-36.912,-17.434,-24.197,0.000,2,41.519646,-86.239952,0.000000,0.839,246.399994,18,53,19,0,12,3,U_TURN_HDG,AP_HDG_SEL_IMU,290.600,30.000,-20.000,4,-17,0,20,ROLL_RIGHT
35,2.825138,0,6.164,-0.500,-2.640,11.140,-5.569,242.959,4.812,-23.053,-18.017,-31.875,5.125,22.375,6.844,-2.743,31.783,0.845,-0.092,-0.057,-0.523,1,-38.872,-17.455,-24.832,0.000,2,41.519646,-86.239952,0.000000,0.699,246.600006,18,53,19,12,12,3,U_TURN_HDG,AP_HDG_SEL_IMU,290.600,30.000,-20.000,4,-17,0,20,ROLL_RIGHT
36,2.943039,0,1.871,0.115,-0.218,12.700,-4.846,243.591,1.790,-18.912,-10.295,-31.875,5.125,22.375,8.100,-2.076,31.501,0.841,-0.094,-0.072,-0.527,1,-37.010,-17.486,-24.230,0.000,2,41.519646,-86.239952,0.000000,0.645,246.800003,18,53,19,24,12,3,U_TURN_HDG,AP_HDG_SEL_IMU,290.600,30.000,-20.000,4,-17,0,20,ROLL_RIGHT
37,3.066044,0,2.089,0.320,-2.332,15.087,-3.759,245.053,3.357,-9.960,-7.945,-31.875,5.125,22.375,9.150,-1.717,31.194,0.833,-0.098,-0.093,-0.536,1,-37.287,-17.463,-24.320,0.000,2,41.519642,-86.239944,0.000000,0.805,247.000000,18,53,19,36,11,3,U_TURN_HDG,AP_HDG_SEL_IMU,290.600,30.000,-20.000,4,-17,0,20,ROLL_RIGHT
38,3.186380,0,1.576,-0.666,0.320,16.950,-2.173,246.391,43.308,-26.745,-11.638,-31.875,5.125,22.375,9.817,-0.948,30.989,0.826,-0.096,-0.113,-0.544,1,-37.216,-17.466,-24.297,0.000,2,41.519642,-86.239944,0.000000,0.754,247.100006,18,53,19,48,10,3,U_TURN_HDG,AP_HDG_SEL_IMU,290.600,30.000,-20.000,4,-17,0,20,ROLL_RIGHT
39,3.305023,0,2.640,-0.218,-0.064,16.091,-1.618,247.671,-3.245,-3.581,-5.819,-31.875,5.125,22.375,10.432,-0.743,30.784,0.821,-0.090,-0.108,-0.553,1,-37.776,-17.435,-24.479,0.000,2,41.519642,-86.239944,0.000000,0.626,247.199997,18,53,19,60,10,3,U_TURN_HDG,AP_HDG_SEL_IMU,290.600,30.000,-20.000,4,-17,0,20,ROLL_RIGHT
40,3.355078,0,-3.973,4.075,-1.499,14.030,1.070,249.455,4.364,31.222,-9.624,-31.875,5.125,22.375,9.253,-0.410,31.168,0.816,-0.062,-0.106,-0.564,1,-36.890,-17.390,-24.190,0.000,2,41.519642,-86.239944,0.000000,0.640,247.199997,18,53,19,64,10,3,U_TURN_HDG,AP_HDG_SEL_IMU,290.600,30.000,-20.000,4,-17,0,20,ROLL_RIGHT
41,3.430771,0,-0.948,-2.794,2.819,14.154,4.343,253.309,51.365,-8.169,-58.079,-31.875,5.125,22.375,8.869,2.538,31.168,0.798,-0.043,-0.121,-0.588,1,-37.639,-17.448,-24.435,0.000,2,41.519642,-86.239944,0.000000,0.520,247.300003,18,53,19,72,11,3,U_TURN_HDG,AP_HDG_SEL_IMU,290.600,30.000,-20.000,4,-17,0,20,ROLL_RIGHT
42,3.486778,0,-1.986,8.715,-6.933,12.386,5.770,255.651,-12.869,51.029,-33.236,-31.875,5.125,22.375,7.023,3.358,31.578,0.788,-0.027,-0.116,-0.605,1,-39.375,-17.454,-24.992,0.000,2,41.519642,-86.239944,0.000000,0.500,247.300003,18,53,19,76,11,3,U_TURN_HDG,AP_HDG_SEL_IMU,290.600,30.000,-20.000,4,-17,0,20,ROLL_RIGHT
43,3.546869,0,-1.666,3.627,-6.113,11.502,2.872,261.505,-117.053,-45.322,-141.785,-31.875,5.125,22.375,7.331,2.153,31.629,0.755,-0.047,-0.092,-0.647,1,-36.173,-17.401,-23.954,0.000,2,41.519642,-86.239944,0.000000,0.484,247.399994,18,53,19,84,12,3,U_TURN_HDG,AP_HDG_SEL_IMU,290.600,29.096,-20.000,4,-17,0,20,ROLL_RIGHT
44,3.674089,0,4.550,0.397,-0.730,12.678,-1.601,267.194,9.960,-27.081,-101.051,-31.875,5.125,22.375,8.279,-0.436,31.424,0.719,-0.086,-0.070,-0.686,1,-40.295,-17.416,-25.282,0.000,2,41.519642,-86.239944,0.000000,0.545,247.500000,18,53,19,96,11,3,U_TURN_HDG,AP_HDG_SEL_IMU,290.600,23.406,-20.000,4,-17,0,20,ROLL_RIGHT
45,3.722559,0,1.730,-4.486,2.819,13.456,0.160,273.889,22.717,38.943,-40.062,-31.875,5.125,22.375,7.536,1.897,31.527,0.678,-0.085,-0.081,-0.726,1,-42.941,-17.375,-26.099,0.000,2,41.519642,-86.239944,0.000000,0.606,247.500000,18,53,20,0,11,3,U_TURN_HDG,AP_HDG_SEL_IMU,290.600,16.711,-20.000,4,-14,3,17,ROLL_RIGHT
46,3.785109,0,-1.525,3.524,-0.782,11.108,2.461,280.950,-21.486,9.064,-43.755,-31.875,5.125,22.375,6.792,2.102,31.706,0.635,-0.061,-0.078,-0.766,1,-37.853,-17.439,-24.504,0.000,2,41.519642,-86.239944,0.000000,0.706,247.600006,18,53,20,8,11,3,U_TURN_HDG,AP_HDG_SEL_IMU,290.600,9.650,-20.000,4,-4,13,7,ROLL_RIGHT
47,3.834014,0,-0.243,-2.602,-1.910,13.142,4.121,283.349,20.479,-37.377,-31.781,-31.875,5.125,22.375,7.843,2.948,31.373,0.619,-0.068,-0.099,-0.776,1,-36.777,-17.454,-24.153,0.000,2,41.519642,-86.239944,0.000000,0.739,247.600006,18,53,20,12,11,3,U_TURN_HDG,AP_HDG_SEL_IMU,290.600,7.252,-20.000,4,3,20,0,MAINTAIN_ANGLE
48,3.884018,0,6.997,3.063,5.793,15.487,6.395,285.592,51.589,-74.305,-43.419,-31.875,5.125,22.375,9.253,4.204,30.835,0.604,-0.074,-0.125,-0.783,1,-37.213,-17.457,-24.296,0.000,2,41.519642,-86.239944,0.000000,0.771,247.600006,18,53,20,16,11,3,U_TURN_HDG,AP_HDG_SEL_IMU,290.600,5.008,-20.000,4,3,20,0,MAINTAIN_ANGLE
49,3.947135,0,9.035,2.204,2.755,15.745,7.383,287.969,4.700,-27.976,-42.636,-31.875,5.125,22.375,9.407,4.562,30.732,0.588,-0.073,-0.132,-0.794,1,-36.686,-17.416,-24.123,0.000,2,41.519642,-86.239944,0.000000,0.994,247.699997,18,53,20,24,11,3,U_TURN_HDG,AP_HDG_SEL_IMU,290.600,0.000,-20.000,4,10,27,7,ROLL_LEFT
50,4.003790,0,2.102,1.217,0.923,13.006,9.337,287.180,-4.029,67.927,25.291,-31.875,5.125,22.375,7.946,4.819,31.117,0.595,-0.043,-0.132,-0.792,1,-40.237,-17.444,-25.264,0.000,2,41.519642,-86.239944,0.000000,1.136,247.699997,18,53,20,28,11,3,U_TURN_HDG,AP_HDG_SEL_IMU,290.600,0.000,-20.000,4,12,29,9,ROLL_LEFT
51,4.067146,0,0.769,1.666,-2.627,13.052,10.328,286.983,-8.169,-11.302,-3.805,-31.875,5.125,22.375,7.792,6.126,30.912,0.597,-0.038,-0.139,-0.789,1,-37.560,-17.432,-24.409,0.000,2,41.519646,-86.239944,0.000000,1.392,247.800003,18,53,20,36,11,3,U_TURN_HDG,AP_HDG_SEL_IMU,290.600,0.000,-20.000,4,13,30,10,ROLL_LEFT
52,4.145568,0,-3.845,0.756,-4.165,12.867,9.591,287.052,56.624,44.986,14.883,-31.875,5.125,22.375,7.177,5.793,31.117,0.596,-0.040,-0.133,-0.791,1,-39.713,-17.408,-25.099,0.000,2,41.519646,-86.239944,0.000000,1.492,247.800003,18,53,20,40,11,3,U_TURN_HDG,AP_HDG_SEL_IMU,290.600,0.000,-20.000,4,13,30,10,ROLL_LEFT
53,4.225469,0,3.409,-2.230,-5.575,8.829,10.552,285.181,-6.379,12.645,-18.688,-31.875,5.125,22.375,5.485,6.305,31.347,0.609,-0.005,-0.119,-0.784,1,-37.316,-17.375,-24.330,0.000,2,41.519646,-86.239937,81.730003,1.819,248.000000,18,53,20,52,11,3,U_TURN_HDG,AP_HDG_SEL_IMU,290.600,5.420,-20.000,4,8,25,5,ROLL_LEFT
54,4.303047,0,0.615,-1.499,-0.026,8.143,11.407,286.575,-14.995,37.153,-6.491,-31.875,5.125,22.375,3.999,5.921,31.655,0.599,0.003,-0.122,-0.791,1,-38.935,-17.437,-24.852,0.000,2,41.519646,-86.239937,71.959999,2.042,248.199997,18,53,20,60,11,3,U_TURN_HDG,AP_HDG_SEL_IMU,290.600,0.000,-20.000,4,14,31,11,ROLL_LEFT
55,4.391322,0,1.435,0.948,0.718,4.431,8.822,286.122,-35.698,41.181,10.855,-31.875,5.125,22.375,2.179,4.998,31.988,0.601,0.015,-0.085,-0.795,1,-40.194,-17.359,-25.250,0.000,2,41.519646,-86.239937,70.389999,2.184,248.300003,18,53,20,68,11,3,U_TURN_HDG,AP_HDG_SEL_IMU,290.600,0.000,-20.000,4,12,29,9,ROLL_LEFT
56,4.442234,0,5.011,-3.524,10.599,1.632,5.067,284.817,-31.446,24.507,28.088,-31.875,5.125,22.375,1.410,3.204,32.245,0.610,0.016,-0.044,-0.791,1,-38.885,-17.342,-24.836,0.000,2,41.519646,-86.239937,70.459999,2.257,248.300003,18,53,20,72,11,3,U_TURN_HDG,AP_HDG_SEL_IMU,290.600,5.783,-20.000,4,3,20,0,MAINTAIN_ANGLE
57,4.523010,0,1.615,1.807,0.538,1.106,5.747,282.948,28.424,-11.750,21.822,-31.875,5.125,22.375,1.128,3.717,32.193,0.622,0.024,-0.045,-0.781,1,-37.964,-17.377,-24.540,0.000,2,41.519646,-86.239937,71.449997,2.132,248.399994,18,53,20,80,11,3,U_TURN_HDG,AP_HDG_SEL_IMU,290.600,7.652,-20.000,4,3,20,0,MAINTAIN_ANGLE
58,4.633652,0,3.217,-0.628,-3.076,2.811,7.840,283.033,21.374,-22.941,-1.455,-31.875,5.125,22.375,2.076,4.665,32.039,0.622,0.023,-0.069,-0.780,1,-38.534,-17.357,-24.723,0.000,2,41.519646,-86.239937,74.529999,1.740,248.500000,18,53,20,92,11,3,U_TURN_HDG,AP_HDG_SEL_IMU,290.600,7.568,-20.000,4,3,20,0,MAINTAIN_ANGLE
59,4.706428,0,0.167,-5.472,-0.525,4.525,8.797,283.817,-12.645,-104.632,-91.091,-31.875,5.125,22.375,5.613,4.742,31.604,0.617,0.016,-0.085,-0.782,1,-40.782,-17.383,-25.434,0.000,2,41.519646,-86.239937,76.750000,1.622,248.600006,18,53,21,0,12,3,U_TURN_HDG,AP_HDG_SEL_IMU,290.600,6.784,-20.000,4,3,20,0,MAINTAIN_ANGLE
60,4.785171,0,1.499,3.076,2.345,11.158,8.470,292.821,1.902,2.350,-14.100,-31.875,5.125,22.375,6.664,4.998,31.347,0.555,-0.040,-0.115,-0.823,1,-37.957,-17.359,-24.538,0.000,2,41.519646,-86.239937,0.000000,1.561,248.600006,18,53,21,8,12,3,U_TURN_HDG,AP_HDG_SEL_IMU,290.600,0.000,-20.000,4,11,28,8,ROLL_LEFT
61,4.844270,0,1.128,-2.294,0.333,10.598,7.909,292.365,-12.869,16.898,9.400,-31.875,5.125,22.375,6.434,4.434,31.476,0.558,-0.038,-0.108,-0.822,1,-38.012,-17.325,-24.555,0.000,2,41.519642,-86.239937,0.000000,1.495,248.699997,18,53,21,12,12,3,U_TURN_HDG,AP_HDG_SEL_IMU,290.600,0.000,-20.000,4,11,28,8,ROLL_LEFT
62,4.908530,0,0.320,-0.359,-0.628,10.269,7.693,291.352,-5.595,12.310,20.926,-31.875,5.125,22.375,6.228,4.460,31.527,0.565,-0.036,-0.106,-0.817,1,-38.029,-17.357,-24.561,0.000,2,41.519642,-86.239937,0.000000,1.389,248.699997,18,53,21,20,12,3,U_TURN_HDG,AP_HDG_SEL_IMU,290.600,0.000,-20.000,4,11,28,8,ROLL_LEFT
63,4.981014,0,2.602,1.051,-4.729,10.610,7.100,290.809,11.974,-3.693,6.379,-31.875,5.125,22.375,6.485,4.204,31.527,0.569,-0.041,-0.103,-0.815,1,-43.235,-17.382,-26.188,0.000,2,41.519642,-86.239937,0.000000,1.403,248.800003,18,53,21,24,12,3,U_TURN_HDG,AP_HDG_SEL_IMU,290.600,0.000,-20.000,4,10,27,7,ROLL_LEFT
64,5.043827,0,1.999,-4.729,3.717,9.632,6.384,288.542,-51.589,35.474,25.850,-31.875,5.125,22.375,5.895,3.665,31.706,0.585,-0.036,-0.094,-0.805,1,-40.983,-17.352,-25.497,0.000,2,41.519642,-86.239937,0.000000,1.362,248.800003,18,53,21,32,12,3,U_TURN_HDG,AP_HDG_SEL_IMU,290.600,0.000,-20.000,4,9,26,6,ROLL_LEFT
65,5.094013,0,0.705,1.884,-1.666,9.096,4.811,286.855,8.505,-3.133,27.081,-31.875,5.125,22.375,5.588,2.768,31.834,0.596,-0.039,-0.081,-0.798,1,-37.733,-17.339,-24.465,0.000,2,41.519642,-86.239937,0.000000,1.235,248.800003,18,53,21,36,12,3,U_TURN_HDG,AP_HDG_SEL_IMU,290.600,0.000,-20.000,4,3,20,0,MAINTAIN_ANGLE
66,5.190004,0,0.628,-1.282,0.730,9.166,4.338,285.660,-5.707,-6.379,37.712,-31.875,5.125,22.375,5.665,2.409,31.834,0.604,-0.041,-0.078,-0.792,1,-38.020,-17.339,-24.558,0.000,2,41.519646,-86.239937,0.000000,0.798,248.899994,18,53,21,48,11,3,GPS_HOMING,AP_HDG_SEL_GPS,190.822,-30.000,-20.000,4,23,40,20,ROLL_LEFT
67,5.264209,0,4.101,-2.486,0.654,9.989,4.098,283.912,9.848,-22.717,38.272,-31.875,5.125,22.375,6.818,2.179,31.629,0.616,-0.047,-0.082,-0.782,1,-39.829,-17.351,-25.136,0.000,2,41.519646,-86.239937,0.000000,0.856,249.000000,18,53,21,56,11,3,GPS_HOMING,AP_HDG_SEL_GPS,190.822,-30.000,-20.000,4,23,40,20,ROLL_LEFT
68,5.354022,0,-1.423,1.038,0.128,12.249,4.792,279.779,11.414,30.774,35.027,-31.875,5.125,22.375,7.202,2.640,31.527,0.643,-0.055,-0.100,-0.757,1,-37.531,-17.372,-24.400,0.000,2,41.519646,-86.239937,0.000000,0.932,249.000000,18,53,21,60,11,3,GPS_HOMING,AP_HDG_SEL_GPS,190.822,-30.000,-20.000,4,23,40,20,ROLL_LEFT
69,5.414260,0,-1.576,0.718,-1.986,11.272,3.515,275.166,-6.043,-14.324,40.286,-31.875,5.125,22.375,6.767,1.871,31.681,0.673,-0.052,-0.089,-0.732,1,-37.821,-17.375,-24.494,0.000,2,41.519646,-86.239937,0.000000,1.124,249.000000,18,53,21,68,11,3,GPS_HOMING,AP_HDG_SEL_GPS,190.822,-30.000,-20.000,4,23,40,20,ROLL_LEFT
70,5.470014,0,4.434,-0.577,1.845,13.338,2.363,272.493,-41.405,-72.291,33.460,-31.875,5.125,22.375,8.663,0.666,31.245,0.688,-0.070,-0.095,-0.716,1,-37.682,-17.381,-24.448,0.000,2,41.519646,-86.239937,0.000000,1.057,249.000000,18,53,21,72,11,3,GPS_HOMING,AP_HDG_SEL_GPS,190.822,-30.000,-20.000,4,23,40,20,ROLL_LEFT
71,5.523021,0,2.230,-1.077,0.397,18.394,-0.064,271.242,-16.338,-70.501,20.143,-31.875,5.125,22.375,10.611,-0.154,30.655,0.690,-0.115,-0.111,-0.706,1,-37.461,-17.384,-24.377,0.000,2,41.519646,-86.239937,0.000000,1.033,249.000000,18,53,21,80,10,3,GPS_HOMING,AP_HDG_SEL_GPS,190.822,-30.000,-20.000,4,23,40,20,ROLL_LEFT
72,5.578841,0,2.602,-0.474,-1.871,21.722,-0.292,269.737,7.945,-45.546,19.584,-31.875,5.125,22.375,12.201,-0.205,30.066,0.696,-0.135,-0.132,-0.693,1,-37.244,-17.373,-24.306,0.000,2,41.519646,-86.239937,0.000000,0.761,249.000000,18,53,21,84,10,3,GPS_HOMING,AP_PROT_PITCH_MAX,190.822,-30.000,-20.000,4,-17,40,20,PITCH_NOSE_DOWN
73,5.644472,0,0.628,-7.766,0.115,23.722,-0.839,268.798,3.133,-48.120,12.422,-31.875,5.125,22.375,12.380,-0.282,30.015,0.698,-0.149,-0.142,-0.686,1,-36.300,-17.363,-23.996,0.000,2,41.519646,-86.239937,0.000000,0.518,249.000000,18,53,21,92,11,3,GPS_HOMING,AP_PROT_PITCH_MAX,190.822,-30.000,-20.000,4,-17,40,20,PITCH_NOSE_DOWN
74,5.724014,0,-2.320,1.435,0.167,25.869,6.770,267.413,55.281,-27.305,24.619,-31.875,5.125,22.375,14.866,3.922,28.605,0.712,-0.113,-0.201,-0.663,1,-37.084,-17.345,-24.254,0.000,2,41.519646,-86.239937,0.000000,0.665,249.000000,18,53,22,0,11,3,GPS_HOMING,AP_PROT_PITCH_MAX,190.822,-30.000,-20.000,4,-17,40,20,PITCH_NOSE_DOWN
75,5.781673,0,3.512,1.410,2.473,28.144,8.452,264.951,6.938,14.660,32.229,-31.875,5.125,22.375,15.481,3.947,28.272,0.726,-0.111,-0.227,-0.640,1,-37.850,-17.292,-24.503,0.000,2,41.519646,-86.239937,0.000000,0.810,249.100006,18,53,22,4,11,3,GPS_HOMING,AP_PROT_PITCH_MAX,190.822,-30.000,-20.000,4,-17,40,20,PITCH_NOSE_DOWN
76,5.834013,0,-3.153,2.461,-1.871,27.980,8.111,263.838,-33.348,-11.974,-9.400,-31.875,5.125,22.375,15.635,3.793,28.220,0.732,-0.110,-0.225,-0.634,1,-37.875,-17.337,-24.511,0.000,2,41.519650,-86.239937,0.000000,1.316,249.100006,18,53,22,12,11,3,GPS_HOMING,AP_PROT_PITCH_MAX,190.822,-30.000,-20.000,4,-17,40,20,PITCH_NOSE_DOWN
77,5.914274,0,-1.282,-0.320,-2.486,27.787,4.453,263.888,-84.825,16.450,11.414,-31.875,5.125,22.375,15.353,1.692,28.605,0.728,-0.132,-0.204,-0.641,1,-36.451,-17.380,-24.046,0.000,2,41.519650,-86.239937,0.000000,1.644,249.100006,18,53,22,20,11,3,GPS_HOMING,AP_PROT_PITCH_MAX,190.822,-30.000,-20.000,4,-17,40,20,PITCH_NOSE_DOWN
78,5.981432,0,-1.371,2.871,-0.282,25.862,1.066,260.562,32.341,52.931,18.576,-31.875,5.125,22.375,13.226,0.820,29.681,0.745,-0.138,-0.177,-0.629,1,-36.427,-17.335,-24.038,0.000,2,41.519650,-86.239944,28.379999,1.789,249.000000,18,53,22,24,9,3,GPS_HOMING,AP_PROT_PITCH_MAX,190.822,-30.000,-20.000,4,-17,40,20,PITCH_NOSE_DOWN
79,6.051168,0,-1.525,2.576,-1.269,20.921,4.010,259.820,47.896,41.629,-24.843,-31.875,5.125,22.375,11.662,2.307,30.245,0.758,-0.090,-0.161,-0.626,1,-37.523,-17.358,-24.397,0.000,2,41.519650,-86.239944,351.549988,2.029,249.000000,18,53,22,32,8,3,GPS_HOMING,AP_PROT_PITCH_MAX,190.822,-30.000,-20.000,4,-17,40,20,PITCH_NOSE_DOWN
80,6.112875,0,-0.718,1.217,3.191,19.525,5.339,260.587,29.991,26.186,-16.786,-31.875,5.125,22.375,10.688,3.742,30.476,0.756,-0.075,-0.159,-0.631,1,-37.232,-17.354,-24.302,0.000,2,41.519650,-86.239944,345.540009,2.014,249.000000,18,53,22,36,8,3,GPS_HOMING,AP_HDG_SEL_GPS,190.822,-30.000,-20.000,4,23,40,20,ROLL_LEFT
81,6.188262,0,0.525,1.948,3.460,17.268,8.776,261.672,29.655,55.505,-17.905,-31.875,5.125,22.375,9.919,4.716,30.604,0.753,-0.041,-0.163,-0.636,1,-38.310,-17.348,-24.652,0.000,2,41.519650,-86.239944,336.510010,2.027,249.100006,18,53,22,48,9,3,GPS_HOMING,AP_HDG_SEL_GPS,190.822,-30.000,-20.000,4,23,40,20,ROLL_LEFT
82,6.281880,0,-2.204,-0.090,10.291,15.256,9.077,262.069,28.984,41.853,-23.388,-31.875,5.125,22.375,8.305,5.408,30.963,0.752,-0.028,-0.151,-0.641,1,-41.471,-17.320,-25.648,0.000,2,41.519650,-86.239944,334.880005,1.963,249.100006,18,53,22,52,9,3,GPS_HOMING,AP_HDG_SEL_GPS,190.822,-30.000,-20.000,4,23,40,20,ROLL_LEFT
83,6.361590,0,1.025,-1.141,2.768,13.294,9.574,264.084,-21.262,-29.655,-24.507,-31.875,5.125,22.375,7.741,5.280,31.168,0.742,-0.016,-0.141,-0.656,1,-37.963,-17.369,-24.539,0.000,2,41.519650,-86.239944,328.869995,1.848,249.100006,18,53,22,60,9,3,GPS_HOMING,AP_HDG_SEL_GPS,190.822,-30.000,-20.000,4,23,40,20,ROLL_LEFT
84,6.427497,0,2.743,1.717,-3.512,12.651,6.782,264.869,-46.889,24.955,-15.779,-31.875,5.125,22.375,7.356,3.768,31.501,0.737,-0.031,-0.121,-0.665,1,-39.372,-17.304,-24.991,0.000,2,41.519650,-86.239944,317.049988,2.171,249.000000,18,53,22,72,8,3,GPS_HOMING,AP_HDG_SEL_GPS,190.822,-30.000,-20.000,4,23,40,20,ROLL_LEFT
85,6.507424,0,-0.064,1.269,-3.396,11.047,4.850,265.161,-28.088,-12.086,-15.443,-31.875,5.125,22.375,6.434,2.563,31.834,0.735,-0.034,-0.099,-0.670,1,-38.361,-17.301,-24.668,0.000,2,41.519650,-86.239944,315.519989,2.901,249.000000,18,53,22,80,8,3,GPS_HOMING,AP_HDG_SEL_GPS,190.822,-30.000,-20.000,4,23,40,20,ROLL_LEFT
86,6.583524,0,1.115,-0.231,-0.051,11.706,2.153,265.819,-60.765,0.224,6.491,-31.875,5.125,22.375,6.869,0.590,31.860,0.730,-0.056,-0.087,-0.676,1,-38.947,-17.325,-24.856,0.000,2,41.519653,-86.239952,315.320007,3.306,248.899994,18,53,22,88,8,3,GPS_HOMING,AP_HDG_SEL_GPS,190.822,-30.000,-20.000,4,23,40,20,ROLL_LEFT
87,6.648463,0,3.358,0.346,2.435,11.412,-0.669,265.747,-15.555,1.231,7.274,-31.875,5.125,22.375,6.690,-0.615,31.886,0.729,-0.072,-0.069,-0.677,1,-38.601,-17.349,-24.745,0.000,2,41.519653,-86.239952,314.450012,3.711,248.800003,18,53,22,92,8,3,GPS_HOMING,AP_HDG_SEL_GPS,190.822,-30.000,-20.000,4,23,40,20,ROLL_LEFT
88,6.698370,0,0.846,-0.192,1.551,12.388,-1.562,265.611,16.786,-29.543,-13.541,-31.875,5.125,22.375,7.459,-0.692,31.758,0.728,-0.083,-0.070,-0.677,1,-37.361,-17.325,-24.344,0.000,2,41.519653,-86.239952,314.790009,3.820,248.800003,18,53,22,96,8,3,GPS_HOMING,AP_HDG_SEL_GPS,190.822,-30.000,-20.000,4,23,40,20,ROLL_LEFT
89,6.772013,0,2.140,-3.665,0.871,12.937,-1.662,266.058,-48.903,20.591,13.093,-31.875,5.125,22.375,7.587,-0.846,31.732,0.725,-0.087,-0.073,-0.679,1,-38.388,-17.354,-24.676,0.000,2,41.519653,-86.239952,314.649994,3.625,248.699997,18,53,23,4,9,3,GPS_HOMING,AP_HDG_SEL_GPS,190.822,-30.000,-20.000,4,23,40,20,ROLL_LEFT
90,6.838519,0,0.179,-0.487,-4.024,11.017,-3.384,265.542,-8.169,3.133,-30.326,-31.875,5.125,22.375,6.741,-2.025,31.937,0.728,-0.087,-0.050,-0.678,1,-38.020,-17.342,-24.558,0.000,2,41.519653,-86.239952,315.500000,3.409,248.699997,18,53,23,12,9,3,GPS_HOMING,AP_HDG_SEL_GPS,190.822,-30.000,-20.000,4,23,40,20,ROLL_LEFT
91,6.911518,0,-0.500,-0.141,-5.716,12.001,-3.224,268.009,27.529,-4.364,-26.857,-31.875,5.125,22.375,7.074,-1.717,31.911,0.713,-0.093,-0.056,-0.693,1,-38.975,-17.375,-24.865,0.000,2,41.519657,-86.239952,318.209991,3.257,248.699997,18,53,23,20,9,3,GPS_HOMING,AP_HDG_SEL_GPS,190.822,-30.000,-20.000,4,23,40,20,ROLL_LEFT
92,6.966014,0,0.359,0.833,-3.870,12.502,-2.503,268.905,-6.491,-8.169,-12.533,-31.875,5.125,22.375,7.356,-1.307,31.860,0.708,-0.092,-0.062,-0.698,1,-37.383,-17.368,-24.351,0.000,2,41.519657,-86.239952,319.929993,3.200,248.699997,18,53,23,24,9,3,GPS_HOMING,AP_HDG_SEL_GPS,190.822,-30.000,-20.000,4,23,40,20,ROLL_LEFT
93,7.042018,0,0.756,-0.103,-0.205,12.335,-2.276,267.858,12.422,6.826,21.598,-31.875,5.125,22.375,7.356,-1.307,31.860,0.714,-0.089,-0.064,-0.691,1,-37.504,-17.319,-24.391,0.000,2,41.519657,-86.239952,322.760010,2.545,248.800003,18,53,23,32,10,3,GPS_HOMING,AP_HDG_SEL_GPS,190.822,-30.000,-20.000,4,23,40,20,ROLL_LEFT
94,7.111526,0,1.858,-3.704,-2.922,12.477,-1.979,266.654,43.979,-14.548,-4.812,-31.875,5.125,22.375,7.510,-0.538,31.834,0.722,-0.087,-0.067,-0.683,1,-37.464,-17.386,-24.378,0.000,2,41.519657,-86.239952,325.839996,2.398,248.899994,18,53,23,40,10,3,GPS_HOMING,AP_HDG_SEL_GPS,190.822,-30.000,-20.000,4,23,40,20,ROLL_LEFT
95,7.167499,0,1.871,2.499,1.000,11.760,0.896,266.482,17.569,26.634,9.176,-31.875,5.125,22.375,6.946,0.769,31.937,0.725,-0.065,-0.080,-0.681,1,-38.324,-17.373,-24.656,0.000,2,41.519657,-86.239952,327.200012,2.250,248.899994,18,53,23,44,10,3,GPS_HOMING,AP_HDG_SEL_GPS,190.822,-30.000,-20.000,4,23,40,20,ROLL_LEFT
96,7.242159,0,0.359,-0.641,-2.589,11.809,3.199,264.788,10.967,-0.224,63.563,-31.875,5.125,22.375,7.023,1.871,31.860,0.736,-0.049,-0.095,-0.668,1,-37.499,-17.311,-24.389,0.000,2,41.519657,-86.239952,328.529999,2.182,248.899994,18,53,23,52,10,3,GPS_HOMING,AP_HDG_SEL_GPS,190.822,-30.000,-20.000,4,23,40,20,ROLL_LEFT
97,7.299705,0,0.769,-5.331,2.358,11.500,2.390,259.806,32.676,8.617,46.553,-31.875,5.125,22.375,6.767,1.999,31.937,0.764,-0.048,-0.090,-0.637,1,-38.072,-17.303,-24.575,0.000,2,41.519657,-86.239952,329.200012,2.142,249.000000,18,53,23,56,10,3,GPS_HOMING,AP_HDG_SEL_GPS,190.822,-30.000,-20.000,4,23,40,20,ROLL_LEFT
98,7.350583,0,-0.974,-2.371,-0.256,10.959,3.667,258.115,1.679,16.562,7.050,-31.875,5.125,22.375,6.562,2.102,31.937,0.774,-0.035,-0.094,-0.625,1,-37.175,-17.385,-24.284,0.000,2,41.519657,-86.239952,329.829987,2.090,248.899994,18,53,23,64,10,3,GPS_HOMING,AP_HDG_SEL_GPS,190.822,-30.000,-20.000,4,23,40,20,ROLL_LEFT
99,7.466108,0,1.000,-1.474,-2.768,10.521,5.516,258.333,46.889,2.350,-11.638,-31.875,5.125,22.375,6.254,2.871,31.937,0.774,-0.021,-0.101,-0.625,1,-37.800,-17.338,-24.487,0.000,2,41.519657,-86.239952,0.000000,1.723,248.899994,18,53,23,76,10,3,GPS_HOMING,AP_HDG_SEL_GPS,190.822,-30.000,-20.000,4,23,40,20,ROLL_LEFT
100,7.585634,0,0.359,0.551,0.602,10.869,9.360,259.229,10.183,11.862,-4.029,-31.875,5.125,22.375,6.305,3.127,31.911,0.769,0.002,-0.125,-0.627,1,-38.737,-17.331,-24.788,0.000,2,41.519657,-86.239952,0.000000,1.279,248.800003,18,53,23,88,9,3,GPS_HOMING,AP_HDG_SEL_GPS,190.822,-30.000,-20.000,4,23,40,20,ROLL_LEFT
101,7.671047,0,0.525,-0.090,-0.154,9.762,10.595,259.909,-9.624,-0.448,-0.671,-31.875,5.125,22.375,6.485,5.229,31.578,0.766,0.016,-0.124,-0.631,1,-38.393,-17.366,-24.678,0.000,2,41.519653,-86.239952,0.000000,1.016,248.800003,18,53,23,96,8,3,GPS_HOMING,AP_HDG_SEL_GPS,190.822,-30.000,-20.000,4,23,40,20,ROLL_LEFT
102,7.735878,0,0.577,-1.089,-0.910,9.740,10.597,260.027,-1.902,-4.476,4.700,-31.875,5.125,22.375,5.921,5.921,31.578,0.765,0.016,-0.124,-0.632,1,-37.943,-17.333,-24.533,0.000,2,41.519653,-86.239952,0.000000,0.842,248.800003,18,53,24,0,8,3,GPS_HOMING,AP_HDG_SEL_GPS,190.822,-30.000,-20.000,4,23,40,20,ROLL_LEFT
103,7.789551,0,0.756,-0.192,-1.000,10.051,10.465,260.199,3.021,0.112,-4.364,-31.875,5.125,22.375,6.049,5.844,31.552,0.764,0.013,-0.125,-0.633,1,-37.512,-17.334,-24.393,0.000,2,41.519653,-86.239952,0.000000,0.510,248.800003,18,53,24,8,8,3,GPS_HOMING,AP_HDG_SEL_GPS,190.822,-30.000,-20.000,4,23,40,20,ROLL_LEFT
104,7.907108,0,0.628,-0.192,-0.372,10.228,10.548,260.456,-4.252,-5.483,-4.029,-31.875,5.125,22.375,6.126,5.870,31.552,0.763,0.013,-0.127,-0.634,1,-37.438,-17.330,-24.369,0.000,2,41.519653,-86.239952,0.000000,0.138,248.800003,18,53,24,20,8,3,GPS_HOMING,AP_HDG_SEL_GPS,190.822,-30.000,-20.000,4,23,40,20,ROLL_LEFT
105,7.984057,0,0.269,-1.397,0.218,10.678,2.730,261.048,-13.205,-0.112,-7.498,-31.875,5.125,22.375,6.100,5.562,31.604,0.758,-0.042,-0.086,-0.645,1,-37.877,-17.348,-24.512,0.000,2,41.519653,-86.239952,0.000000,0.061,248.800003,18,53,24,28,8,3,GPS_HOMING,AP_HDG_SEL_GPS,190.822,-30.000,-20.000,4,23,40,20,ROLL_LEFT
106,8.104065,0,0.487,0.705,0.449,11.555,-2.027,261.410,-94.001,-14.548,-11.526,-31.875,5.125,22.375,6.382,1.512,31.988,0.753,-0.079,-0.065,-0.650,1,-39.197,-17.385,-24.935,0.000,2,41.519653,-86.239952,0.000000,0.376,248.899994,18,53,24,40,7,3,GPS_HOMING,AP_HDG_SEL_GPS,190.822,-30.000,-20.000,4,23,40,20,ROLL_LEFT
107,8.230585,0,-0.192,0.897,-0.038,12.670,-5.372,261.497,-52.484,-3.021,4.141,-31.875,5.125,22.375,7.997,-6.254,31.040,0.749,-0.107,-0.053,-0.652,1,-37.380,-17.361,-24.350,0.000,2,41.519653,-86.239944,0.000000,0.738,249.000000,18,53,24,52,7,3,GPS_HOMING,AP_HDG_SEL_GPS,190.822,-30.000,-20.000,4,23,40,20,ROLL_LEFT
108,8.348839,0,0.282,0.884,0.577,13.570,-13.740,261.064,-22.157,4.476,-5.371,-31.875,5.125,22.375,7.971,-7.741,30.707,0.740,-0.167,-0.012,-0.651,1,-37.441,-17.337,-24.370,0.000,2,41.519653,-86.239944,0.000000,0.862,249.100006,18,53,24,64,7,3,GPS_HOMING,AP_HDG_SEL_GPS,190.822,-30.000,-20.000,4,19,36,16,ROLL_LEFT
109,8.429020,0,-0.897,0.910,0.782,13.545,-16.186,261.115,-23.612,2.798,11.862,-31.875,5.125,22.375,7.818,-9.458,30.271,0.736,-0.182,0.002,-0.652,1,-37.563,-17.297,-24.410,0.000,2,41.519653,-86.239944,0.000000,0.771,249.199997,18,53,24,72,7,3,GPS_HOMING,AP_HDG_SEL_GPS,190.822,-30.000,-20.000,4,17,34,14,ROLL_LEFT
110,8.510181,0,-0.103,0.256,-0.923,13.206,-18.456,260.280,-16.898,0.224,12.310,-31.875,5.125,22.375,7.664,-10.432,29.963,0.738,-0.195,0.016,-0.646,1,-37.800,-17.338,-24.487,0.000,2,41.519657,-86.239944,0.000000,0.733,249.199997,18,53,24,80,7,3,GPS_HOMING,AP_HDG_SEL_GPS,190.822,-30.000,-20.000,4,15,32,12,ROLL_LEFT
111,8.588845,0,-1.564,-1.230,-0.090,12.984,-19.473,259.545,-3.917,0.224,4.924,-31.875,5.125,22.375,7.613,-10.714,29.886,0.740,-0.200,0.022,-0.641,1,-36.876,-17.367,-24.186,0.000,2,41.519657,-86.239952,0.000000,0.814,249.300003,18,53,24,88,7,3,GPS_HOMING,AP_HDG_SEL_GPS,190.822,-30.000,-20.000,4,14,31,11,ROLL_LEFT
112,8.669026,0,-0.615,0.807,0.513,12.952,-19.824,259.349,8.729,4.364,-6.267,-31.875,5.125,22.375,7.536,-10.560,29.938,0.741,-0.203,0.024,-0.640,1,-37.941,-17.323,-24.532,0.000,2,41.519657,-86.239952,0.000000,0.945,249.300003,18,53,24,96,7,3,GPS_HOMING,AP_HDG_SEL_GPS,190.822,-30.000,-20.000,4,13,30,10,ROLL_LEFT
113,8.744978,0,-1.448,0.218,0.705,13.479,-19.027,259.617,4.924,-11.862,0.560,-31.875,5.125,22.375,7.843,-10.150,30.015,0.740,-0.200,0.016,-0.642,1,-37.784,-17.306,-24.482,0.000,2,41.519657,-86.239952,0.000000,1.138,249.300003,18,53,25,4,7,3,GPS_HOMING,AP_HDG_SEL_GPS,190.822,-30.000,-20.000,4,14,31,11,ROLL_LEFT
114,8.823107,0,-1.833,-0.974,0.551,13.855,-16.878,260.229,42.524,-6.379,-23.500,-31.875,5.125,22.375,8.305,-7.895,30.527,0.740,-0.188,0.003,-0.646,1,-37.664,-17.348,-24.443,0.000,2,41.519657,-86.239952,0.000000,1.295,249.399994,18,53,25,12,7,3,GPS_HOMING,AP_HDG_SEL_GPS,190.822,-30.000,-20.000,4,16,33,13,ROLL_LEFT
115,8.909960,0,-1.384,-0.026,1.910,14.904,-14.480,262.378,-10.967,-2.350,-23.836,-31.875,5.125,22.375,8.561,-7.818,30.476,0.729,-0.179,-0.015,-0.660,1,-37.369,-17.337,-24.347,0.000,2,41.519657,-86.239952,0.000000,1.303,249.399994,18,53,25,20,7,3,GPS_HOMING,AP_HDG_SEL_GPS,190.822,-30.000,-20.000,4,19,36,16,ROLL_LEFT
116,9.024070,0,-0.372,-1.730,0.577,15.811,-13.320,264.196,19.472,-8.393,-29.543,-31.875,5.125,22.375,9.022,-7.177,30.502,0.719,-0.177,-0.024,-0.671,1,-37.869,-17.328,-24.509,0.000,2,41.519657,-86.239952,0.000000,1.374,249.500000,18,53,25,32,7,3,GPS_HOMING,AP_HDG_SEL_GPS,190.822,-30.000,-20.000,4,20,37,17,ROLL_LEFT
117,9.225183,0,-0.833,-1.794,0.615,17.164,-15.419,264.257,5.371,-7.162,-3.021,-31.875,5.125,22.375,9.150,-7.228,30.450,0.713,-0.198,-0.021,-0.672,1,-37.798,-17.328,-24.486,0.000,2,41.519657,-86.239952,0.000000,1.455,249.600006,18,53,25,52,8,3,GPS_HOMING,AP_HDG_SEL_GPS,190.822,-30.000,-20.000,4,18,35,15,ROLL_LEFT
118,9.387997,0,0.115,2.884,0.179,17.955,-17.311,264.875,-15.779,-3.021,-12.533,-31.875,5.125,22.375,10.535,-11.252,28.784,0.705,-0.214,-0.014,-0.676,1,-37.019,-17.359,-24.233,0.000,2,41.519657,-86.239952,0.000000,1.460,249.699997,18,53,25,68,8,3,GPS_HOMING,AP_HDG_SEL_GPS,190.822,-30.000,-20.000,4,16,33,13,ROLL_LEFT
119,9.467504,0,-1.499,-0.961,0.769,18.846,-22.833,264.505,-6.379,-1.343,7.722,-31.875,5.125,22.375,10.945,-12.483,28.143,0.694,-0.252,0.013,-0.674,1,-36.978,-17.281,-24.219,0.000,2,41.519657,-86.239952,0.000000,1.403,249.800003,18,53,25,76,8,3,GPS_HOMING,AP_HDG_SEL_GPS,190.822,-30.000,-20.000,4,10,27,7,ROLL_LEFT
120,9.523012,0,-0.295,4.383,-0.308,19.758,-23.769,263.839,-6.043,-0.783,11.862,-31.875,5.125,22.375,11.047,-12.354,28.118,0.694,-0.263,0.011,-0.670,1,-36.611,-17.266,-24.099,0.000,2,41.519657,-86.239952,0.000000,1.371,249.800003,18,53,25,80,8,3,GPS_HOMING,AP_HDG_SEL_GPS,190.822,-30.000,-20.000,4,9,26,6,ROLL_LEFT
121,9.587458,0,-0.513,3.089,0.295,19.141,-24.445,262.934,-1.231,6.938,22.381,-31.875,5.125,22.375,10.586,-12.765,28.118,0.699,-0.264,0.016,-0.665,1,-36.727,-17.210,-24.137,0.000,2,41.519657,-86.239952,0.000000,1.291,249.899994,18,53,25,88,8,3,GPS_HOMING,AP_HDG_SEL_GPS,190.822,-30.000,-20.000,4,9,26,6,ROLL_LEFT
122,9.643012,0,-1.666,-1.346,-0.384,18.386,-25.173,261.335,3.469,-2.910,50.917,-31.875,5.125,22.375,9.971,-13.354,28.041,0.708,-0.265,0.022,-0.654,1,-37.435,-17.329,-24.368,0.000,2,41.519657,-86.239952,0.000000,1.254,249.899994,18,53,25,92,8,3,GPS_HOMING,AP_HDG_SEL_GPS,190.822,-30.000,-20.000,4,3,20,0,MAINTAIN_ANGLE
123,9.705995,0,-1.743,0.141,0.743,17.078,-25.730,258.607,0.448,3.357,33.684,-31.875,5.125,22.375,9.535,-13.482,28.118,0.725,-0.262,0.027,-0.636,1,-38.445,-17.327,-24.695,0.000,2,41.519657,-86.239952,0.000000,1.210,249.899994,18,53,25,96,8,3,GPS_HOMING,AP_HDG_SEL_GPS,190.822,-30.000,-20.000,4,3,20,0,MAINTAIN_ANGLE
124,9.765506,0,-3.652,0.782,0.308,16.141,-25.202,256.499,40.846,-3.021,25.515,-31.875,5.125,22.375,8.997,-13.252,28.374,0.740,-0.254,0.026,-0.622,1,-38.276,-17.276,-24.640,0.000,2,41.519657,-86.239952,0.000000,1.119,249.899994,18,53,26,4,8,3,GPS_HOMING,AP_HDG_SEL_GPS,190.822,-30.000,-20.000,4,3,20,0,MAINTAIN_ANGLE
125,9.838919,0,-2.691,1.064,0.551,15.684,-23.800,254.971,36.146,-9.400,40.062,-31.875,5.125,22.375,8.663,-12.483,28.810,0.752,-0.243,0.018,-0.612,1,-37.845,-17.282,-24.501,0.000,2,41.519657,-86.239952,0.000000,1.107,249.899994,18,53,26,12,9,3,GPS_HOMING,AP_HDG_SEL_GPS,190.822,-30.000,-20.000,4,9,26,6,ROLL_LEFT
126,9.916258,0,-1.999,-0.551,-0.154,15.209,-21.349,251.583,1.902,-6.714,49.239,-31.875,5.125,22.375,8.279,-11.432,29.323,0.776,-0.225,0.002,-0.590,1,-37.486,-17.282,-24.385,0.000,2,41.519657,-86.239952,0.000000,1.084,249.899994,18,53,26,20,9,3,GPS_HOMING,AP_HDG_SEL_GPS,190.822,-30.000,-20.000,4,12,29,9,ROLL_LEFT
127,9.975845,0,-2.884,-1.371,-0.333,14.789,-20.560,247.957,8.393,-16.898,28.536,-31.875,5.125,22.375,8.253,-10.817,29.579,0.796,-0.218,-0.006,-0.564,1,-37.544,-17.253,-24.404,0.000,2,41.519657,-86.239952,0.000000,1.158,249.899994,18,53,26,24,9,3,GPS_HOMING,AP_HDG_SEL_GPS,190.822,-30.000,-20.000,4,12,29,9,ROLL_LEFT
128,10.035017,0,-2.512,-1.512,1.653,15.208,-21.061,245.848,6.043,-17.457,18.129,-31.875,5.125,22.375,8.407,-11.175,29.399,0.805,-0.223,-0.011,-0.550,1,-36.810,-17.233,-24.164,0.000,2,41.519657,-86.239952,0.000000,1.291,249.899994,18,53,26,32,9,3,GPS_HOMING,AP_HDG_SEL_GPS,190.822,-30.000,-20.000,4,12,29,9,ROLL_LEFT
129,10.145127,0,0.500,6.690,2.230,15.698,-20.522,244.857,5.707,-21.598,21.710,-31.875,5.125,22.375,8.817,-11.175,29.271,0.810,-0.221,-0.019,-0.543,1,-37.612,-17.252,-24.426,0.000,2,41.519657,-86.239952,0.000000,1.376,249.899994,18,53,26,44,9,3,GPS_HOMING,AP_HDG_SEL_GPS,190.822,-30.000,-20.000,4,12,29,9,ROLL_LEFT
130,10.222497,0,-1.307,-0.666,-0.256,16.335,-21.005,241.606,20.255,-14.548,12.533,-31.875,5.125,22.375,8.920,-11.047,29.271,0.823,-0.227,-0.028,-0.521,1,-37.073,-17.326,-24.250,0.000,2,41.519657,-86.239952,0.000000,1.349,250.000000,18,53,26,52,9,3,GPS_HOMING,AP_HDG_SEL_GPS,190.822,-30.000,-20.000,4,12,29,9,ROLL_LEFT
131,10.307767,0,1.153,6.818,1.948,16.147,-20.516,240.489,16.786,-5.931,-3.021,-31.875,5.125,22.375,8.894,-10.611,29.451,0.829,-0.222,-0.031,-0.512,1,-36.904,-17.276,-24.195,0.000,2,41.519657,-86.239952,0.000000,1.220,250.000000,18,53,26,60,9,3,GPS_HOMING,AP_HDG_SEL_GPS,190.822,-30.000,-20.000,4,12,29,9,ROLL_LEFT
132,10.387473,0,-1.269,1.384,-0.026,16.658,-20.021,240.191,-0.224,-16.674,3.469,-31.875,5.125,22.375,9.176,-10.483,29.374,0.830,-0.220,-0.037,-0.510,1,-37.258,-17.261,-24.310,0.000,2,41.519657,-86.239952,0.000000,1.129,250.000000,18,53,26,68,9,3,GPS_HOMING,AP_HDG_SEL_GPS,190.822,-30.000,-20.000,4,13,30,10,ROLL_LEFT
133,10.466592,0,0.641,-1.487,0.551,17.365,-21.213,239.057,-25.850,-8.505,18.129,-31.875,5.125,22.375,9.407,-11.355,28.964,0.832,-0.231,-0.039,-0.503,1,-37.557,-17.278,-24.408,0.000,2,41.519657,-86.239952,0.000000,1.058,250.000000,18,53,26,76,9,3,GPS_HOMING,AP_HDG_SEL_GPS,190.822,-30.000,-20.000,4,12,29,9,ROLL_LEFT
134,10.532013,0,1.089,-4.370,-1.064,17.315,-23.513,237.569,-45.769,4.700,28.536,-31.875,5.125,22.375,9.202,-12.713,28.425,0.833,-0.247,-0.032,-0.493,1,-37.027,-17.234,-24.235,0.000,2,41.519657,-86.239952,0.000000,1.006,250.000000,18,53,26,80,9,3,GPS_HOMING,AP_HDG_SEL_GPS,190.822,-30.000,-20.000,4,9,26,6,ROLL_LEFT
135,10.585821,0,0.346,-2.538,2.204,16.538,-25.759,236.577,2.014,-2.910,-12.645,-31.875,5.125,22.375,8.971,-13.303,28.220,0.834,-0.261,-0.019,-0.485,1,-37.092,-17.218,-24.257,0.000,2,41.519657,-86.239952,0.000000,0.927,250.000000,18,53,26,88,9,3,GPS_HOMING,AP_HDG_SEL_GPS,190.822,-30.000,-20.000,4,3,20,0,MAINTAIN_ANGLE
136,10.643991,0,0.128,-5.921,-1.346,17.057,-25.798,237.440,-10.967,1.790,-25.626,-31.875,5.125,22.375,9.279,-13.380,28.118,0.829,-0.263,-0.021,-0.492,1,-36.198,-17.302,-23.962,0.000,2,41.519657,-86.239952,0.000000,0.940,250.100006,18,53,26,92,9,3,GPS_HOMING,AP_HDG_SEL_GPS,190.822,-30.000,-20.000,4,3,20,0,MAINTAIN_ANGLE
137,10.690643,0,2.063,-0.154,-0.641,17.785,-25.230,239.327,-0.671,1.119,-27.081,-31.875,5.125,22.375,9.637,-13.046,28.169,0.821,-0.262,-0.024,-0.506,1,-36.679,-17.256,-24.121,0.000,2,41.519657,-86.239952,0.000000,0.981,250.100006,18,53,26,96,9,3,GPS_HOMING,AP_HDG_SEL_GPS,190.822,-30.000,-20.000,4,3,20,0,MAINTAIN_ANGLE
138,10.790960,0,2.115,-1.051,-0.936,17.926,-25.385,239.830,4.588,-3.693,-1.119,-31.875,5.125,22.375,9.714,-13.149,28.092,0.818,-0.264,-0.023,-0.510,1,-38.050,-17.256,-24.568,0.000,2,41.519661,-86.239952,0.000000,1.084,250.000000,18,53,27,8,9,3,GPS_HOMING,AP_HDG_SEL_GPS,190.822,-30.000,-20.000,4,3,20,0,MAINTAIN_ANGLE
139,10.863962,0,0.756,0.141,0.384,18.217,-24.758,240.185,16.786,11.191,-18.688,-31.875,5.125,22.375,9.817,-12.508,28.349,0.817,-0.261,-0.028,-0.513,1,-36.975,-17.274,-24.218,0.000,2,41.519661,-86.239952,0.000000,1.279,250.000000,18,53,27,16,9,3,GPS_HOMING,AP_HDG_SEL_GPS,190.822,-30.000,-20.000,4,8,25,5,ROLL_LEFT
140,10.943915,0,1.358,4.819,-2.268,17.866,-22.742,242.468,29.655,10.631,-19.024,-31.875,5.125,22.375,9.637,-11.483,28.861,0.812,-0.245,-0.029,-0.528,1,-36.753,-17.263,-24.145,0.000,2,41.519661,-86.239952,0.000000,1.333,250.100006,18,53,27,20,9,3,GPS_HOMING,AP_HDG_SEL_GPS,190.822,-30.000,-20.000,4,10,27,7,ROLL_LEFT
141,11.004017,0,-0.192,-0.115,-3.512,17.544,-16.569,245.791,42.524,20.926,-20.479,-31.875,5.125,22.375,9.586,-8.792,29.810,0.809,-0.202,-0.049,-0.550,1,-37.055,-17.287,-24.244,0.000,2,41.519661,-86.239952,0.000000,1.617,250.199997,18,53,27,28,9,3,GPS_HOMING,AP_HDG_SEL_GPS,190.822,-30.000,-20.000,4,16,33,13,ROLL_LEFT
142,11.063571,0,1.141,6.626,1.781,16.717,-13.990,247.416,67.143,14.212,-30.215,-31.875,5.125,22.375,9.048,-5.998,30.655,0.807,-0.180,-0.053,-0.560,1,-37.425,-17.305,-24.365,0.000,2,41.519661,-86.239952,0.000000,1.735,250.300003,18,53,27,32,8,3,GPS_HOMING,AP_HDG_SEL_GPS,190.822,-30.000,-20.000,4,19,36,16,ROLL_LEFT
143,11.126013,0,0.692,-0.628,1.346,16.170,-10.357,249.179,23.724,9.736,-7.722,-31.875,5.125,22.375,8.920,-5.562,30.784,0.805,-0.153,-0.065,-0.570,1,-37.850,-17.294,-24.503,0.000,2,41.519661,-86.239952,331.239990,2.022,250.399994,18,53,27,40,8,3,GPS_HOMING,AP_HDG_SEL_GPS,190.822,-30.000,-20.000,4,23,40,20,ROLL_LEFT
144,11.230692,0,1.974,0.295,0.871,16.002,-9.988,249.343,-36.705,-7.386,5.483,-31.875,5.125,22.375,8.920,-5.741,30.758,0.804,-0.150,-0.065,-0.571,1,-37.540,-17.243,-24.402,0.000,2,41.519661,-86.239952,326.459991,2.120,250.300003,18,53,27,52,8,3,GPS_HOMING,AP_HDG_SEL_GPS,190.822,-30.000,-20.000,4,23,40,20,ROLL_LEFT
145,11.281013,0,0.782,-1.192,-0.090,16.921,-12.839,248.993,-53.827,-24.284,12.869,-31.875,5.125,22.375,9.919,-8.612,29.758,0.801,-0.174,-0.058,-0.570,1,-38.629,-17.261,-24.754,0.000,2,41.519665,-86.239952,322.470001,2.152,250.199997,18,53,27,56,8,3,GPS_HOMING,AP_HDG_SEL_GPS,190.822,-30.000,-20.000,4,20,37,17,ROLL_LEFT
146,11.351746,0,2.076,0.282,-0.871,18.661,-18.813,247.842,-68.486,-16.562,-4.812,-31.875,5.125,22.375,10.535,-10.535,28.938,0.793,-0.223,-0.043,-0.565,1,-38.121,-17.257,-24.590,0.000,2,41.519665,-86.239960,318.700012,2.063,250.100006,18,53,27,64,8,3,GPS_HOMING,AP_HDG_SEL_GPS,190.822,-30.000,-20.000,4,14,31,11,ROLL_LEFT
147,11.410458,0,-3.191,2.653,-1.089,19.779,-23.006,248.166,-63.563,-5.148,0.000,-31.875,5.125,22.375,11.022,-12.483,27.964,0.780,-0.257,-0.029,-0.569,1,-37.249,-17.246,-24.308,0.000,2,41.519665,-86.239960,317.980011,2.039,250.100006,18,53,27,68,8,3,GPS_HOMING,AP_HDG_SEL_GPS,190.822,-30.000,-20.000,4,10,27,7,ROLL_LEFT
148,11.476012,0,-4.255,0.910,1.410,20.070,-25.728,247.973,-11.526,-7.498,-2.574,-31.875,5.125,22.375,11.124,-13.175,27.605,0.774,-0.277,-0.018,-0.569,1,-36.173,-17.257,-23.954,0.000,2,41.519665,-86.239960,320.579987,1.976,249.899994,18,53,27,76,8,3,GPS_HOMING,AP_PROT_PITCH_MAX,190.822,-30.000,-20.000,4,-17,40,20,PITCH_NOSE_DOWN
149,11.590111,0,-2.614,0.923,-0.820,20.447,-27.411,247.972,-5.371,-7.833,-4.364,-31.875,5.125,22.375,11.406,-14.020,27.093,0.769,-0.290,-0.013,-0.569,1,-36.165,-17.240,-23.951,0.000,2,41.519665,-86.239960,0.000000,1.706,249.800003,18,53,27,88,7,3,GPS_HOMING,AP_PROT_PITCH_MAX,190.822,-30.000,-20.000,4,-17,40,20,PITCH_NOSE_DOWN
150,11.672083,0,0.205,1.704,1.256,20.325,-28.708,247.486,-15.107,-2.686,5.819,-31.875,5.125,22.375,11.150,-14.994,26.631,0.769,-0.298,-0.007,-0.566,1,-35.906,-17.299,-23.866,0.000,2,41.519665,-86.239960,0.000000,1.727,249.800003,18,53,27,96,6,3,GPS_HOMING,AP_PROT_PITCH_MAX,190.822,-30.000,-20.000,4,-17,40,20,PITCH_NOSE_DOWN
151,11.732251,0,-0.205,3.012,1.025,20.313,-29.882,247.362,-1.231,-2.686,-5.371,-31.875,5.125,22.375,11.252,-14.994,26.554,0.766,-0.306,-0.001,-0.565,1,-36.537,-17.262,-24.074,0.000,2,41.519665,-86.239960,0.000000,1.708,249.800003,18,53,28,0,6,3,GPS_HOMING,AP_PROT_PITCH_MAX,190.822,-30.000,-20.000,4,-17,40,20,PITCH_NOSE_DOWN
152,11.779015,0,-0.974,1.833,2.307,20.072,-30.200,247.389,-16.562,11.526,20.926,-31.875,5.125,22.375,11.047,-15.276,26.477,0.766,-0.307,0.002,-0.565,1,-37.396,-17.247,-24.356,0.000,2,41.519665,-86.239960,0.000000,1.622,249.800003,18,53,28,4,6,3,GPS_HOMING,AP_PROT_ROLL_MIN,190.822,30.000,-20.000,4,-17,0,20,ROLL_RIGHT
153,11.831139,0,-0.871,-5.049,1.179,19.131,-31.240,246.853,-20.591,14.324,3.021,-31.875,5.125,22.375,10.483,-15.917,26.324,0.768,-0.310,0.013,-0.560,1,-36.685,-17.267,-24.123,0.000,2,41.519665,-86.239960,0.000000,1.446,249.800003,18,53,28,12,6,3,GPS_HOMING,AP_PROT_ROLL_MIN,190.822,30.000,-20.000,4,-17,0,20,ROLL_RIGHT
154,11.903009,0,-1.551,-1.679,3.973,18.650,-32.389,246.781,-10.967,-4.029,7.610,-31.875,5.125,22.375,10.304,-16.404,26.093,0.766,-0.315,0.022,-0.559,1,-37.121,-17.277,-24.266,0.000,2,41.519665,-86.239960,0.000000,1.273,249.800003,18,53,28,20,6,3,GPS_HOMING,AP_PROT_ROLL_MIN,190.822,30.000,-20.000,4,-17,0,20,ROLL_RIGHT
155,11.991414,0,0.154,0.577,-1.435,19.358,-32.159,246.521,3.581,-11.974,-5.036,-31.875,5.125,22.375,10.688,-16.174,26.067,0.766,-0.317,0.015,-0.558,1,-36.516,-17.222,-24.067,0.000,2,41.519665,-86.239960,0.000000,1.214,249.800003,18,53,28,24,6,3,GPS_HOMING,AP_PROT_ROLL_MIN,190.822,30.000,-20.000,4,-17,0,20,ROLL_RIGHT
156,12.052017,0,-0.871,0.038,-0.961,19.246,-29.776,246.824,55.058,18.017,-9.736,-31.875,5.125,22.375,10.560,-15.123,26.734,0.772,-0.300,0.005,-0.561,1,-36.460,-17.254,-24.049,0.000,2,41.519665,-86.239960,0.000000,1.170,249.800003,18,53,28,32,6,3,GPS_HOMING,AP_HDG_SEL_GPS,190.822,-30.000,-20.000,4,3,20,0,MAINTAIN_ANGLE
157,12.110300,0,0.295,1.461,-2.794,18.590,-26.108,247.691,53.715,34.467,5.595,-31.875,5.125,22.375,9.561,-12.457,28.425,0.778,-0.273,-0.007,-0.566,1,-36.632,-17.309,-24.106,0.000,2,41.519665,-86.239960,0.000000,1.171,249.800003,18,53,28,36,6,3,GPS_HOMING,AP_HDG_SEL_GPS,190.822,-30.000,-20.000,4,3,20,0,MAINTAIN_ANGLE
158,12.162735,0,0.000,-4.639,-3.652,17.165,-20.870,248.234,115.039,5.819,-5.819,-31.875,5.125,22.375,9.407,-10.970,29.066,0.790,-0.231,-0.021,-0.568,1,-37.475,-17.262,-24.381,0.000,2,41.519665,-86.239960,0.000000,1.502,249.699997,18,53,28,44,6,3,GPS_HOMING,AP_HDG_SEL_GPS,190.822,-30.000,-20.000,4,12,29,9,ROLL_LEFT
159,12.244017,0,-0.449,-3.499,2.063,16.012,-17.346,248.770,21.150,29.991,1.455,-31.875,5.125,22.375,8.945,-9.381,29.758,0.796,-0.201,-0.029,-0.570,1,-37.396,-17.248,-24.356,0.000,2,41.519665,-86.239967,300.250000,1.862,249.699997,18,53,28,52,6,3,GPS_HOMING,AP_HDG_SEL_GPS,190.822,-30.000,-20.000,4,16,33,13,ROLL_LEFT
160,12.322010,0,-0.897,0.833,-0.077,15.440,-12.795,250.253,12.869,2.126,-15.779,-31.875,5.125,22.375,8.458,-6.587,30.604,0.797,-0.167,-0.046,-0.579,1,-37.470,-17.256,-24.380,0.000,2,41.519665,-86.239967,285.260010,2.101,249.699997,18,53,28,60,6,3,GPS_HOMING,AP_HDG_SEL_GPS,190.822,-30.000,-20.000,4,20,37,17,ROLL_LEFT
161,12.401009,0,1.986,1.282,-0.256,15.777,-11.718,250.914,-6.379,-3.021,-10.631,-31.875,5.125,22.375,8.689,-6.280,30.604,0.794,-0.162,-0.053,-0.583,1,-37.322,-17.246,-24.331,0.000,2,41.519665,-86.239967,281.679993,2.424,249.699997,18,53,28,68,6,3,GPS_HOMING,AP_HDG_SEL_GPS,190.822,-30.000,-20.000,4,21,38,18,ROLL_LEFT
162,12.448380,0,0.974,0.961,-1.000,16.477,-12.757,250.814,-43.531,-18.129,11.414,-31.875,5.125,22.375,9.099,-6.997,30.297,0.792,-0.172,-0.052,-0.583,1,-37.605,-17.230,-24.424,0.000,2,41.519665,-86.239967,280.339996,2.581,249.600006,18,53,28,72,6,3,GPS_HOMING,AP_HDG_SEL_GPS,190.822,-30.000,-20.000,4,20,37,17,ROLL_LEFT
163,12.512062,0,0.218,-0.423,-0.320,16.858,-14.264,250.413,-72.179,0.895,6.379,-31.875,5.125,22.375,9.227,-8.612,29.835,0.792,-0.184,-0.048,-0.581,1,-36.383,-17.240,-24.023,0.000,2,41.519665,-86.239967,278.380005,2.565,249.600006,18,53,28,80,6,3,GPS_HOMING,AP_HDG_SEL_GPS,190.822,-30.000,-20.000,4,19,36,16,ROLL_LEFT
164,12.588014,0,0.936,0.064,-0.346,17.261,-19.391,249.828,-34.691,-17.345,-6.043,-31.875,5.125,22.375,9.637,-10.535,29.092,0.785,-0.221,-0.026,-0.578,1,-36.677,-17.251,-24.120,0.000,2,41.519665,-86.239967,274.910004,2.500,249.300003,18,53,28,84,6,3,GPS_HOMING,AP_HDG_SEL_GPS,190.822,-30.000,-20.000,4,14,31,11,ROLL_LEFT
165,12.642206,0,-0.397,-2.268,0.948,17.731,-23.230,249.598,-44.762,1.790,-9.624,-31.875,5.125,22.375,9.714,-12.098,28.425,0.777,-0.250,-0.010,-0.578,1,-37.179,-17.252,-24.285,0.000,2,41.519665,-86.239967,274.929993,2.236,249.300003,18,53,28,92,6,3,GPS_HOMING,AP_HDG_SEL_GPS,190.822,-30.000,-20.000,4,10,27,7,ROLL_LEFT
166,12.714442,0,1.884,-1.730,-4.819,17.668,-25.850,250.048,-92.882,4.700,5.260,-31.875,5.125,22.375,9.637,-14.302,27.426,0.769,-0.267,0.004,-0.581,1,-36.526,-17.240,-24.071,0.000,2,41.519665,-86.239967,283.209991,2.020,249.199997,18,53,29,0,6,3,GPS_HOMING,AP_HDG_SEL_GPS,190.822,-30.000,-20.000,4,3,20,0,MAINTAIN_ANGLE
167,12.787512,0,-0.449,2.089,-0.231,18.566,-29.541,249.881,-22.829,-22.381,-12.198,-31.875,5.125,22.375,10.637,-15.533,26.375,0.759,-0.296,0.016,-0.580,1,-36.241,-17.245,-23.976,0.000,2,41.519665,-86.239967,286.140015,1.946,249.199997,18,53,29,8,6,3,GPS_HOMING,AP_HDG_SEL_GPS,190.822,-30.000,-20.000,4,3,20,0,MAINTAIN_ANGLE
168,12.837012,0,-1.499,-0.641,1.589,19.706,-31.481,249.592,-16.226,-4.924,4.141,-31.875,5.125,22.375,10.817,-15.943,26.067,0.752,-0.313,0.017,-0.579,1,-36.542,-17.269,-24.076,0.000,2,41.519665,-86.239975,283.579987,1.909,249.199997,18,53,29,12,6,3,GPS_HOMING,AP_PROT_ROLL_MIN,190.822,30.000,-20.000,4,-17,0,20,ROLL_RIGHT
169,12.902290,0,-0.666,1.884,2.435,19.638,-32.603,249.468,-36.257,3.693,-1.231,-31.875,5.125,22.375,10.765,-16.404,25.785,0.750,-0.321,0.023,-0.578,1,-36.169,-17.247,-23.953,0.000,2,41.519665,-86.239975,273.649994,1.873,249.100006,18,53,29,20,6,3,GPS_HOMING,AP_PROT_ROLL_MIN,190.822,30.000,-20.000,4,-17,0,20,ROLL_RIGHT
170,13.024623,0,-1.230,0.192,-1.704,19.497,-34.423,249.580,-32.676,-1.790,1.007,-31.875,5.125,22.375,10.842,-17.891,24.734,0.745,-0.332,0.034,-0.578,1,-36.090,-17.235,-23.927,0.000,2,41.519665,-86.239975,270.899994,1.657,249.100006,18,53,29,32,6,3,GPS_HOMING,AP_PROT_ROLL_MIN,190.822,30.000,-20.000,4,-17,0,20,ROLL_RIGHT
171,13.190945,0,-1.025,0.679,-0.718,20.713,-38.407,247.894,-21.710,-20.591,6.155,-31.875,5.125,22.375,11.355,-18.762,23.837,0.738,-0.363,0.040,-0.568,1,-35.641,-17.201,-23.777,0.000,2,41.519665,-86.239975,0.000000,1.475,249.000000,18,53,29,48,6,3,GPS_HOMING,AP_PROT_ROLL_MIN,190.822,30.000,-20.000,4,-17,0,20,ROLL_RIGHT
172,13.262171,0,-0.525,1.794,-0.295,19.538,-40.937,246.729,-20.031,-10.072,0.560,-31.875,5.125,22.375,11.406,-19.121,23.504,0.738,-0.375,0.057,-0.557,1,-35.991,-17.182,-23.894,0.000,2,41.519665,-86.239975,0.000000,1.500,249.000000,18,53,29,56,6,3,GPS_HOMING,AP_PROT_ROLL_MIN,190.822,30.000,-20.000,4,-17,0,20,ROLL_RIGHT
173,13.340598,0,-0.282,4.139,-1.615,19.226,-39.908,246.808,32.900,14.660,-2.686,-31.875,5.125,22.375,10.432,-19.275,23.812,0.742,-0.367,0.054,-0.558,1,-35.740,-17.253,-23.810,0.000,2,41.519665,-86.239975,270.820007,1.605,249.000000,18,53,29,64,6,3,GPS_HOMING,AP_PROT_ROLL_MIN,190.822,30.000,-20.000,4,-17,0,20,ROLL_RIGHT
174,13.421891,0,-0.320,2.268,-1.871,18.184,-36.261,247.476,60.653,23.836,4.252,-31.875,5.125,22.375,9.663,-17.327,25.529,0.753,-0.339,0.046,-0.562,1,-36.575,-17.196,-24.087,0.000,2,41.519665,-86.239975,268.309998,1.639,249.000000,18,53,29,72,6,3,GPS_HOMING,AP_PROT_ROLL_MIN,190.822,30.000,-20.000,4,-17,0,20,ROLL_RIGHT
175,13.511247,0,-0.026,-0.282,1.640,15.970,-31.264,247.864,36.593,48.567,26.745,-31.875,5.125,22.375,7.946,-15.533,27.221,0.770,-0.296,0.038,-0.563,1,-36.642,-17.183,-24.109,0.000,2,41.519665,-86.239975,264.179993,1.666,249.000000,18,53,29,80,6,3,GPS_HOMING,AP_PROT_ROLL_MIN,190.822,30.000,-20.000,4,-17,0,20,ROLL_RIGHT
176,13.566018,0,-0.423,0.743,1.128,11.659,-28.693,247.598,10.855,24.731,27.193,-31.875,5.125,22.375,5.588,-15.071,28.041,0.787,-0.260,0.055,-0.557,1,-36.714,-17.182,-24.133,0.000,2,41.519665,-86.239975,261.140015,1.713,249.000000,18,53,29,84,6,3,GPS_HOMING,AP_HDG_SEL_GPS,190.822,-30.000,-20.000,4,3,20,0,MAINTAIN_ANGLE
177,13.640014,0,-0.564,2.973,2.550,9.254,-28.202,246.716,39.838,2.350,3.469,-31.875,5.125,22.375,5.049,-14.841,28.272,0.797,-0.246,0.068,-0.548,1,-36.734,-17.225,-24.139,0.000,2,41.519665,-86.239975,255.880005,1.794,249.000000,18,53,29,92,6,3,GPS_HOMING,AP_HDG_SEL_GPS,190.822,-30.000,-20.000,4,3,20,0,MAINTAIN_ANGLE
178,13.698563,0,-1.333,3.217,-1.897,8.462,-25.618,246.829,52.820,16.562,-9.176,-31.875,5.125,22.375,4.357,-12.636,29.425,0.803,-0.224,0.062,-0.549,1,-36.936,-17.196,-24.205,0.000,2,41.519665,-86.239975,253.710007,1.831,249.000000,18,53,29,96,6,3,GPS_HOMING,AP_HDG_SEL_GPS,190.822,-30.000,-20.000,4,3,20,0,MAINTAIN_ANGLE
179,13.785638,0,-0.961,-2.281,1.192,7.372,-22.421,247.504,22.493,26.522,7.498,-31.875,5.125,22.375,4.024,-12.149,29.681,0.807,-0.196,0.055,-0.554,1,-37.227,-17.200,-24.301,0.000,2,41.519665,-86.239983,253.550003,1.809,249.000000,18,53,30,8,6,3,GPS_HOMING,AP_HDG_SEL_GPS,190.822,-30.000,-20.000,4,11,28,8,ROLL_LEFT
180,13.860112,0,1.358,2.781,-1.525,6.156,-21.466,248.144,19.360,4.252,20.814,-31.875,5.125,22.375,2.999,-11.380,30.091,0.807,-0.184,0.060,-0.558,1,-37.665,-17.211,-24.443,0.000,2,41.519665,-86.239983,0.000000,1.708,248.899994,18,53,30,16,6,3,GPS_HOMING,AP_HDG_SEL_GPS,190.822,-30.000,-20.000,4,12,29,9,ROLL_LEFT
181,13.990621,0,0.410,1.205,-2.051,4.902,-19.024,247.401,15.555,2.238,7.498,-31.875,5.125,22.375,2.768,-10.637,30.373,0.816,-0.161,0.057,-0.553,1,-37.583,-17.192,-24.416,0.000,2,41.519665,-86.239983,0.000000,1.452,248.800003,18,53,30,28,6,3,GPS_HOMING,AP_HDG_SEL_GPS,190.822,-30.000,-20.000,4,14,31,11,ROLL_LEFT
182,14.105832,0,0.192,-2.768,0.679,4.122,-18.922,246.787,-3.917,-2.238,13.653,-31.875,5.125,22.375,2.640,-10.406,30.450,0.820,-0.157,0.061,-0.547,1,-37.373,-17.198,-24.348,0.000,2,41.519665,-86.239983,0.000000,1.365,248.699997,18,53,30,40,6,3,GPS_HOMING,AP_HDG_SEL_GPS,190.822,-30.000,-20.000,4,14,31,11,ROLL_LEFT
183,14.263139,0,-0.474,-1.589,0.051,4.174,-18.674,246.182,-8.169,1.790,2.574,-31.875,5.125,22.375,1.820,-10.535,30.450,0.823,-0.155,0.058,-0.543,1,-37.406,-17.272,-24.359,0.000,2,41.519665,-86.239983,0.000000,1.202,248.600006,18,53,30,56,6,3,GPS_HOMING,AP_HDG_SEL_GPS,190.822,-30.000,-20.000,4,14,31,11,ROLL_LEFT
184,14.342871,0,0.090,2.922,2.499,3.065,-21.452,245.994,-3.357,-5.819,-2.350,-31.875,5.125,22.375,1.743,-11.406,30.143,0.821,-0.170,0.079,-0.539,1,-36.745,-17.247,-24.143,0.000,2,41.519665,-86.239983,0.000000,1.072,248.500000,18,53,30,64,6,3,GPS_HOMING,AP_HDG_SEL_GPS,190.822,-30.000,-20.000,4,12,29,9,ROLL_LEFT
185,14.423087,0,0.602,-1.781,3.230,2.674,-25.952,245.764,-54.386,-21.374,-8.617,-31.875,5.125,22.375,1.333,-13.764,29.194,0.815,-0.201,0.103,-0.533,1,-36.888,-17.242,-24.190,0.000,2,41.519665,-86.239983,0.000000,0.842,248.399994,18,53,30,72,6,3,GPS_HOMING,AP_HDG_SEL_GPS,190.822,-30.000,-20.000,4,3,20,0,MAINTAIN_ANGLE
186,14.507555,0,0.795,-2.409,-0.384,5.592,-30.402,245.568,-43.084,-49.574,-18.800,-31.875,5.125,22.375,3.640,-16.635,27.451,0.803,-0.246,0.102,-0.533,1,-36.243,-17.254,-23.977,0.000,2,41.519665,-86.239983,0.000000,0.673,248.300003,18,53,30,80,6,3,GPS_HOMING,AP_PROT_ROLL_MIN,190.822,30.000,-20.000,4,-17,0,20,ROLL_RIGHT
187,14.588178,0,0.833,2.730,-0.128,9.097,-34.946,244.103,-29.096,-49.127,10.407,-31.875,5.125,22.375,5.434,-18.557,25.888,0.793,-0.294,0.095,-0.525,1,-34.936,-17.236,-23.541,0.000,2,41.519665,-86.239983,0.000000,0.525,248.300003,18,53,30,88,6,3,GPS_HOMING,AP_PROT_ROLL_MIN,190.822,30.000,-20.000,4,-17,0,20,ROLL_RIGHT
188,14.677174,0,-0.654,0.179,-2.191,10.416,-39.106,240.810,-32.453,-24.284,10.407,-31.875,5.125,22.375,5.870,-20.582,24.171,0.794,-0.331,0.095,-0.501,1,-36.313,-17.250,-24.000,0.000,2,41.519665,-86.239983,0.000000,0.726,248.399994,18,53,30,96,7,3,GPS_HOMING,AP_PROT_ROLL_MIN,190.822,30.000,-20.000,4,-17,0,20,ROLL_RIGHT
