Line_Num,ESP32_Time,ID0,LinAcc_x,LinAcc_y,LinAcc_z,Pitch_deg,Roll_deg,Yaw_deg,Gyro_deg_x,Gyro_deg_y,Gyro_deg_z,Magnet_uT_x,Magnet_uT_y,Magnet_uT_z,Grav_x,Grav_y,Grav_z,Quat_re,Quat_i,Quat_j,Quat_k,ID1,RawPress_Pa,RawAirspeed,CorrAirspeed,temp_C,ID2,latitude,longitude,heading,gnd_speed,altitude,hours,mins,secs,hundredths,satellites
1,0.080354,0,0.039,0.012,0.012,8.099,-0.974,95.025,-1.119,0.000,0.000,-28.312,0.000,-29.438,1.383,-0.141,9.867,0.673,-0.058,-0.041,-0.736,1,-35.246,-7.788,0.000,27.675,2,41.519432,-86.239815,0.000000,0.049,252.800003,11,46,46,0,12
2,0.100472,0,0.074,0.059,0.051,8.095,-0.989,95.024,-1.343,0.112,0.112,-29.250,3.125,-27.688,1.383,-0.148,9.867,0.673,-0.058,-0.041,-0.736,1,-35.246,-7.788,0.000,27.675,2,41.519432,-86.239815,0.000000,0.221,252.800003,11,46,46,8,12
3,0.177378,0,0.031,-0.055,0.012,8.091,-1.024,95.021,-1.119,0.112,0.112,-27.375,-0.500,-25.375,1.391,-0.148,9.867,0.673,-0.058,-0.041,-0.736,1,-38.402,-8.129,0.000,27.675,2,41.519432,-86.239815,0.000000,0.118,252.800003,11,46,46,20,12
4,0.223378,0,-0.039,0.027,0.004,8.083,-1.055,95.019,0.000,0.000,0.000,-28.188,3.938,-27.938,1.391,-0.156,9.875,0.673,-0.058,-0.041,-0.736,1,-38.402,-8.129,0.000,27.675,2,41.519432,-86.239815,0.000000,0.159,252.800003,11,46,46,24,12
5,0.297378,0,0.039,-0.047,-0.035,8.072,-1.045,95.020,0.224,0.112,-0.112,-29.188,2.000,-26.688,1.383,-0.156,9.875,0.673,-0.058,-0.041,-0.736,1,-35.246,-7.788,0.000,27.675,2,41.519432,-86.239815,0.000000,0.132,252.800003,11,46,46,32,12
6,0.381378,0,0.074,-0.012,0.004,8.075,-1.010,95.027,0.112,-0.112,0.000,-28.062,2.312,-27.188,1.383,-0.156,9.875,0.673,-0.058,-0.041,-0.736,1,-32.090,-7.431,0.000,27.675,2,41.519432,-86.239815,0.000000,0.098,252.800003,11,46,46,40,12
7,0.422378,0,-0.008,-0.012,-0.043,8.060,-0.986,95.024,-0.336,0.000,0.112,-28.000,-1.062,-26.938,1.391,-0.156,9.883,0.673,-0.058,-0.041,-0.736,1,-45.767,-8.875,0.000,27.675,2,41.519432,-86.239815,0.000000,0.041,252.800003,11,46,46,44,12
8,0.506378,0,-0.008,-0.039,-0.043,8.055,-1.001,95.018,-0.783,0.000,-0.112,-26.562,3.812,-28.062,1.391,-0.164,9.883,0.673,-0.058,-0.041,-0.736,1,-38.402,-8.129,0.000,27.675,2,41.519432,-86.239815,0.000000,0.046,252.800003,11,46,46,52,12
9,0.577378,0,0.000,-0.039,-0.004,8.057,-1.040,95.030,-0.336,-0.112,-0.112,-28.438,-0.750,-26.562,1.383,-0.164,9.883,0.673,-0.058,-0.041,-0.736,1,-45.767,-8.875,0.000,27.675,2,41.519432,-86.239815,0.000000,0.089,252.800003,11,46,46,60,12
10,0.665378,0,0.039,-0.004,0.035,8.057,-1.050,95.034,1.231,0.000,-0.112,-28.875,2.812,-27.750,1.383,-0.164,9.883,0.673,-0.058,-0.041,-0.736,1,-42.611,-8.563,0.000,27.675,2,41.519432,-86.239815,0.000000,0.025,252.800003,11,46,46,68,12
11,0.783378,0,0.000,-0.020,-0.078,8.032,-0.922,95.034,0.895,0.000,0.112,-29.750,1.562,-29.000,1.383,-0.148,9.883,0.673,-0.057,-0.041,-0.736,1,-42.611,-8.563,0.000,27.675,2,41.519432,-86.239815,0.000000,0.091,252.800003,11,46,46,80,12
12,0.856378,0,0.000,-0.039,0.082,8.037,-0.917,95.034,-1.007,-0.112,-0.112,-26.625,1.062,-27.938,1.383,-0.164,9.875,0.673,-0.057,-0.041,-0.736,1,-42.611,-8.563,0.000,27.675,2,41.519432,-86.239815,0.000000,0.137,252.800003,11,46,46,88,12
13,0.902378,0,0.066,-0.039,-0.004,8.035,-0.990,95.049,0.560,0.000,-0.112,-26.625,1.875,-28.938,1.391,-0.164,9.883,0.673,-0.057,-0.041,-0.736,1,-42.611,-8.563,0.000,27.675,2,41.519432,-86.239815,0.000000,0.059,252.800003,11,46,46,92,12
14,0.952378,0,-0.008,-0.004,0.035,8.032,-0.911,95.044,1.902,0.000,0.000,-27.688,2.500,-27.000,1.391,-0.164,9.883,0.673,-0.057,-0.041,-0.736,1,-42.611,-8.563,0.000,27.675,2,41.519432,-86.239815,0.000000,0.111,252.800003,11,46,46,96,12
15,1.026378,0,-0.055,-0.020,-0.043,8.029,-0.852,95.043,1.455,0.112,-0.112,-27.312,3.188,-27.562,1.391,-0.141,9.883,0.673,-0.057,-0.042,-0.736,1,-45.767,-8.875,0.000,27.675,2,41.519432,-86.239815,0.000000,0.015,252.800003,11,46,47,4,12
16,1.105358,0,0.031,0.012,0.035,8.026,-0.782,95.044,0.560,0.000,0.000,-26.812,2.312,-27.812,1.391,-0.133,9.883,0.673,-0.056,-0.042,-0.736,1,-38.402,-8.129,0.000,27.675,2,41.519432,-86.239815,0.000000,0.079,252.800003,11,46,47,8,12
17,1.142378,0,-0.008,-0.035,0.035,8.027,-0.812,95.051,-0.560,0.112,0.112,-27.625,-0.250,-28.500,1.391,-0.133,9.883,0.673,-0.056,-0.042,-0.736,1,-42.611,-8.563,0.000,27.675,2,41.519432,-86.239815,0.000000,0.081,252.800003,11,46,47,16,12
18,1.224378,0,-0.008,0.012,-0.051,8.024,-0.837,95.050,-0.895,0.112,0.224,-28.188,4.125,-28.938,1.391,-0.141,9.891,0.673,-0.057,-0.042,-0.736,1,-38.402,-8.129,0.000,27.675,2,41.519432,-86.239815,0.000000,0.106,252.800003,11,46,47,24,12
19,1.304378,0,-0.008,-0.047,-0.004,8.020,-0.872,95.042,-0.112,-0.112,-0.112,-27.812,1.312,-28.812,1.391,-0.148,9.883,0.673,-0.057,-0.042,-0.736,1,-45.767,-8.875,0.000,27.675,2,41.519432,-86.239815,0.000000,0.061,252.800003,11,46,47,32,12
20,1.350378,0,0.066,0.027,-0.004,8.027,-0.906,95.045,-0.224,-0.224,0.112,-27.562,2.062,-27.812,1.383,-0.164,9.883,0.673,-0.057,-0.041,-0.736,1,-45.767,-8.875,0.000,27.675,2,41.519432,-86.239815,0.000000,0.127,252.800003,11,46,47,36,12
21,1.381378,0,0.031,-0.012,0.035,8.022,-0.921,95.054,0.000,0.000,0.000,-30.562,3.438,-27.062,1.391,-0.156,9.883,0.673,-0.057,-0.041,-0.736,1,-38.402,-8.129,0.000,27.675,2,41.519432,-86.239815,0.000000,0.140,252.800003,11,46,47,40,12
22,1.464378,0,-0.008,-0.047,-0.078,8.027,-0.916,95.054,0.112,0.000,0.000,-30.188,3.438,-27.500,1.391,-0.156,9.883,0.673,-0.057,-0.041,-0.736,1,-42.611,-8.563,0.000,27.675,2,41.519432,-86.239815,0.000000,0.116,252.800003,11,46,47,48,12
23,1.586378,0,-0.008,0.027,0.035,8.022,-0.901,95.055,0.671,-0.112,0.112,-27.938,2.125,-28.250,1.391,-0.164,9.883,0.673,-0.057,-0.041,-0.736,1,-42.611,-8.563,0.000,27.675,2,41.519432,-86.239815,0.000000,0.132,252.800003,11,46,47,60,12
24,1.626378,0,-0.047,0.043,-0.043,8.015,-0.867,95.042,-1.902,-0.112,0.000,-27.375,4.000,-28.688,1.391,-0.164,9.883,0.673,-0.057,-0.042,-0.736,1,-42.611,-8.563,0.000,27.675,2,41.519432,-86.239815,0.000000,0.147,252.800003,11,46,47,64,12
25,1.661379,0,-0.047,-0.070,-0.004,8.021,-1.006,95.038,-1.119,-0.336,-0.224,-29.062,1.812,-28.875,1.391,-0.164,9.883,0.673,-0.057,-0.041,-0.736,1,-42.611,-8.563,0.000,27.675,2,41.519432,-86.239815,0.000000,0.268,252.800003,11,46,47,68,12
26,1.744378,0,-0.008,-0.070,0.113,8.027,-1.030,95.046,0.224,-0.112,-0.112,-28.625,0.938,-27.938,1.391,-0.172,9.883,0.673,-0.058,-0.041,-0.736,1,-38.402,-8.129,0.000,27.675,2,41.519432,-86.239815,0.000000,0.088,252.800003,11,46,47,76,12
27,1.825378,0,0.031,-0.012,-0.012,8.023,-0.941,95.042,2.910,0.224,0.224,-26.812,2.562,-27.938,1.391,-0.156,9.891,0.673,-0.057,-0.041,-0.736,1,-42.611,-8.563,0.000,27.675,2,41.519432,-86.239815,0.000000,0.199,252.800003,11,46,47,84,12
28,1.860378,0,-0.047,0.082,-0.086,8.005,-0.764,95.030,-0.112,0.224,0.000,-27.688,3.000,-28.062,1.391,-0.141,9.891,0.673,-0.056,-0.042,-0.736,1,-42.611,-8.563,0.000,27.675,2,41.519432,-86.239815,0.000000,0.091,252.800003,11,46,47,88,12
29,1.900378,0,-0.133,0.051,-0.004,8.002,-0.809,95.027,-2.462,-0.224,-0.112,-28.750,-0.812,-28.375,1.391,-0.141,9.891,0.673,-0.056,-0.042,-0.736,1,-45.767,-8.875,0.000,27.675,2,41.519432,-86.239815,0.000000,0.111,252.800003,11,46,47,92,12
30,1.950378,0,-0.086,-0.055,-0.043,8.013,-0.943,95.032,-3.469,-0.224,-0.224,-28.250,4.375,-28.688,1.391,-0.148,9.883,0.673,-0.057,-0.041,-0.736,1,-38.402,-8.129,0.000,27.675,2,41.519432,-86.239815,0.000000,0.076,252.800003,11,46,47,96,12
31,2.070377,0,0.047,-0.070,0.035,8.019,-1.061,95.044,-1.119,-0.336,-0.448,-26.938,0.875,-28.438,1.375,-0.172,9.883,0.673,-0.058,-0.040,-0.736,1,-38.402,-8.129,0.000,27.675,2,41.519432,-86.239815,0.000000,0.046,252.699997,11,46,48,8,12
32,2.144378,0,0.031,-0.020,-0.051,8.022,-1.015,95.057,2.686,0.224,0.336,-27.062,2.188,-29.188,1.398,-0.141,9.891,0.673,-0.058,-0.041,-0.736,1,-42.611,-8.563,0.000,27.675,2,41.519432,-86.239815,0.000000,0.116,252.699997,11,46,48,16,12
33,2.224378,0,-0.102,0.129,0.059,8.016,-0.793,95.038,-0.671,-0.112,0.112,-26.938,0.562,-28.375,1.406,-0.141,9.898,0.673,-0.056,-0.042,-0.736,1,-38.402,-8.129,0.000,27.675,2,41.519432,-86.239815,0.000000,0.100,252.699997,11,46,48,24,12
34,2.307378,0,-0.117,-0.055,-0.094,8.050,-0.872,95.027,-0.112,-0.448,0.112,-27.688,3.375,-28.562,1.375,-0.148,9.898,0.673,-0.057,-0.042,-0.736,1,-42.611,-8.563,0.000,27.675,2,41.519432,-86.239815,0.000000,0.137,252.699997,11,46,48,32,12
35,2.426378,0,0.352,0.395,-0.004,8.055,-0.877,95.017,2.574,-1.119,0.112,-27.125,1.500,-27.000,1.375,-0.141,9.883,0.673,-0.057,-0.042,-0.736,1,-48.923,-9.176,0.000,27.675,2,41.519432,-86.239815,0.000000,0.106,252.699997,11,46,48,44,12
36,2.465378,0,-0.078,0.098,-0.043,8.050,-0.768,95.015,1.567,-0.336,0.000,-29.000,0.562,-27.062,1.422,-0.148,9.883,0.673,-0.056,-0.042,-0.736,1,-42.611,-8.563,0.000,27.675,2,41.519432,-86.239815,0.000000,0.191,252.699997,11,46,48,48,12
37,2.581378,0,-0.156,0.203,-0.148,8.061,-0.798,95.012,-0.224,-0.112,-0.336,-28.562,-0.188,-26.562,1.414,-0.141,9.875,0.673,-0.057,-0.042,-0.736,1,-38.402,-8.129,0.000,27.675,2,41.519432,-86.239815,0.000000,0.197,252.699997,11,46,48,60,12
38,2.697378,0,0.191,-0.102,0.035,8.100,-0.887,95.061,-1.119,-0.336,-0.448,-27.875,2.000,-29.562,1.383,-0.148,9.883,0.673,-0.057,-0.042,-0.736,1,-42.611,-8.563,0.000,27.675,2,41.519432,-86.239815,0.000000,0.052,252.600006,11,46,48,72,12
39,2.784378,0,-0.078,0.059,-0.051,8.082,-0.815,95.036,1.007,0.000,0.112,-26.500,3.375,-29.062,1.422,-0.148,9.891,0.673,-0.057,-0.042,-0.736,1,-45.767,-8.875,0.000,27.675,2,41.519432,-86.239815,0.000000,0.068,252.600006,11,46,48,80,12
40,2.839378,0,0.023,-0.039,0.121,8.101,-0.898,95.040,-1.231,-0.448,-0.224,-29.375,0.812,-28.375,1.406,-0.164,9.883,0.673,-0.057,-0.042,-0.736,1,-35.246,-7.788,0.000,27.675,2,41.519428,-86.239815,0.000000,0.111,252.600006,11,46,48,84,12
41,2.949378,0,0.145,-0.031,0.227,8.107,-0.921,95.073,0.671,0.000,-0.336,-29.375,3.750,-27.812,1.391,-0.164,9.875,0.673,-0.058,-0.042,-0.736,1,-38.402,-8.129,0.000,27.675,2,41.519428,-86.239815,0.000000,0.019,252.600006,11,46,48,96,12
42,3.069378,0,-0.047,-0.219,-0.125,8.095,-0.872,95.072,1.119,0.224,0.671,-28.750,2.125,-27.938,1.422,-0.141,9.898,0.673,-0.057,-0.042,-0.736,1,-32.090,-7.431,0.000,27.675,2,41.519428,-86.239815,0.000000,0.093,252.600006,11,46,49,8,12
43,3.137378,0,-0.008,0.051,0.113,8.069,-0.758,95.015,-1.119,0.224,0.000,-28.812,-1.062,-26.812,1.406,-0.141,9.883,0.673,-0.056,-0.043,-0.736,1,-35.246,-7.788,0.000,27.675,2,41.519428,-86.239815,0.000000,0.052,252.500000,11,46,49,16,12
44,3.222378,0,0.105,0.129,-0.078,8.081,-0.900,95.035,-2.462,-0.336,-0.112,-26.750,-1.000,-28.188,1.391,-0.141,9.883,0.673,-0.057,-0.042,-0.736,1,-35.246,-7.788,0.000,27.675,2,41.519428,-86.239815,0.000000,0.127,252.500000,11,46,49,24,12
45,3.268378,0,0.105,0.051,-0.156,8.098,-1.047,95.045,-2.014,-0.224,-0.336,-27.375,3.688,-29.188,1.406,-0.180,9.883,0.673,-0.058,-0.041,-0.736,1,-35.246,-7.788,0.000,27.675,2,41.519428,-86.239815,0.000000,0.095,252.500000,11,46,49,28,12
46,3.390379,0,0.000,0.168,0.113,8.082,-1.033,95.040,1.455,0.224,0.112,-26.062,-0.625,-27.500,1.414,-0.180,9.883,0.673,-0.058,-0.041,-0.736,1,-38.402,-8.129,0.000,27.675,2,41.519428,-86.239815,0.000000,0.066,252.500000,11,46,49,40,12
47,3.462378,0,0.016,-0.102,-0.012,8.087,-0.923,95.048,1.455,0.112,0.224,-29.000,1.062,-28.500,1.406,-0.141,9.891,0.673,-0.057,-0.042,-0.736,1,-42.611,-8.563,0.000,27.675,2,41.519428,-86.239815,0.000000,0.096,252.500000,11,46,49,48,12
48,3.542378,0,0.008,-0.035,-0.133,8.082,-0.816,95.021,0.560,-0.224,0.224,-27.188,1.188,-27.000,1.414,-0.133,9.898,0.673,-0.057,-0.042,-0.736,1,-38.402,-8.129,0.000,27.675,2,41.519428,-86.239815,0.000000,0.118,252.500000,11,46,49,56,12
49,3.663378,0,-0.062,-0.078,0.074,8.090,-0.777,95.014,0.783,-0.336,-0.224,-26.875,-0.438,-27.938,1.414,-0.125,9.883,0.673,-0.057,-0.043,-0.736,1,-45.767,-8.875,0.000,27.675,2,41.519428,-86.239815,0.000000,0.056,252.399994,11,46,49,68,12
50,3.707378,0,0.082,0.004,0.027,8.100,-0.775,95.029,-2.462,0.112,0.224,-28.562,0.250,-27.562,1.414,-0.164,9.891,0.673,-0.057,-0.043,-0.736,1,-42.611,-8.563,0.000,27.675,2,41.519428,-86.239815,0.000000,0.062,252.399994,11,46,49,72,12
51,3.747378,0,-0.039,0.004,0.027,8.105,-0.999,95.013,-1.119,-0.112,0.000,-27.000,4.312,-29.312,1.422,-0.180,9.891,0.673,-0.058,-0.041,-0.736,1,-48.923,-9.176,0.000,27.675,2,41.519428,-86.239815,0.000000,0.084,252.399994,11,46,49,76,12
52,3.903378,0,-0.117,-0.102,0.027,8.115,-1.008,95.032,0.224,-0.224,-0.336,-28.438,3.375,-29.875,1.422,-0.180,9.891,0.673,-0.058,-0.041,-0.736,1,-48.923,-9.176,0.000,27.675,2,41.519428,-86.239815,0.000000,0.106,252.399994,11,46,49,92,12
53,3.948378,0,-0.039,0.164,-0.059,8.121,-0.793,95.047,0.895,-0.112,-0.224,-29.062,1.250,-27.688,1.422,-0.141,9.898,0.673,-0.057,-0.043,-0.736,1,-45.767,-8.875,0.000,27.675,2,41.519428,-86.239815,0.000000,0.057,252.399994,11,46,49,96,12
54,4.022378,0,-0.156,-0.035,-0.059,8.113,-0.739,95.036,-0.671,-0.112,0.000,-27.250,2.250,-27.688,1.422,-0.133,9.898,0.673,-0.057,-0.043,-0.736,1,-38.402,-8.129,0.000,27.675,2,41.519428,-86.239815,0.000000,0.108,252.399994,11,46,50,4,12
55,4.078378,0,0.137,-0.004,-0.086,8.129,-0.867,95.052,-2.462,-0.224,-0.336,-27.750,0.500,-27.688,1.398,-0.172,9.883,0.673,-0.057,-0.042,-0.736,1,-38.402,-8.129,0.000,27.675,2,41.519428,-86.239815,0.000000,0.221,252.399994,11,46,50,8,12
56,4.220377,0,0.059,-0.070,-0.117,8.125,-0.985,95.069,-1.231,-0.448,-0.112,-29.062,-0.938,-28.938,1.398,-0.188,9.883,0.673,-0.058,-0.042,-0.736,1,-35.246,-7.788,0.000,27.675,2,41.519428,-86.239815,0.000000,0.201,252.399994,11,46,50,24,12
57,4.266378,0,0.090,-0.016,0.066,8.126,-1.004,95.077,3.357,0.336,0.560,-28.500,0.750,-29.000,1.430,-0.148,9.906,0.673,-0.058,-0.041,-0.736,1,-42.611,-8.563,0.000,27.675,2,41.519428,-86.239815,0.000000,0.078,252.399994,11,46,50,28,12
58,4.342378,0,-0.086,-0.094,-0.027,8.098,-0.727,95.007,1.343,0.000,0.112,-28.812,-0.062,-29.188,1.414,-0.141,9.906,0.674,-0.056,-0.043,-0.736,1,-42.611,-8.563,0.000,27.675,2,41.519428,-86.239815,0.000000,0.145,252.399994,11,46,50,36,12
59,4.469377,0,-0.109,0.129,-0.141,8.101,-0.806,95.017,-1.343,0.000,-0.336,-28.500,-0.188,-27.125,1.398,-0.148,9.891,0.673,-0.057,-0.043,-0.736,1,-38.402,-8.129,0.000,27.675,2,41.519428,-86.239815,0.000000,0.236,252.399994,11,46,50,48,12
60,4.587378,0,0.043,-0.207,-0.004,8.114,-1.071,95.043,-2.910,0.000,-0.224,-28.000,-0.625,-27.875,1.414,-0.195,9.883,0.673,-0.058,-0.041,-0.736,1,-38.402,-8.129,0.000,27.675,2,41.519428,-86.239815,0.000000,0.078,252.399994,11,46,50,60,12
61,4.626378,0,-0.109,0.176,-0.020,8.092,-0.918,95.049,1.567,0.224,-0.112,-27.750,0.562,-28.125,1.414,-0.188,9.898,0.673,-0.057,-0.042,-0.736,1,-38.402,-8.129,0.000,27.675,2,41.519428,-86.239815,0.000000,0.095,252.399994,11,46,50,64,12
62,4.705378,0,-0.133,0.035,-0.211,8.085,-0.874,95.042,1.343,0.000,0.224,-29.625,2.062,-26.750,1.398,-0.164,9.898,0.673,-0.057,-0.042,-0.736,1,-38.402,-8.129,0.000,27.675,2,41.519428,-86.239815,0.000000,0.147,252.399994,11,46,50,72,12
63,4.824378,0,0.105,-0.102,0.066,8.083,-0.834,95.045,0.336,0.112,-0.224,-27.812,3.625,-28.375,1.391,-0.141,9.891,0.673,-0.057,-0.042,-0.736,1,-35.246,-7.788,0.000,27.675,2,41.519428,-86.239815,0.000000,0.159,252.399994,11,46,50,84,12
64,4.867378,0,-0.199,-0.203,-0.117,8.072,-0.794,95.057,-0.783,0.224,0.224,-29.188,1.688,-26.688,1.430,-0.141,9.891,0.673,-0.057,-0.042,-0.736,1,-42.611,-8.563,0.000,27.675,2,41.519428,-86.239815,0.000000,0.035,252.399994,11,46,50,88,12
65,4.953378,0,-0.262,-0.148,0.043,8.069,-0.860,95.038,0.336,-0.112,-0.336,-27.062,3.750,-27.688,1.422,-0.164,9.875,0.673,-0.057,-0.042,-0.736,1,-42.611,-8.563,0.000,27.675,2,41.519428,-86.239815,0.000000,0.032,252.399994,11,46,50,96,12
66,5.021378,0,0.176,0.480,-0.062,8.064,-0.832,95.085,0.560,0.448,-0.560,-28.500,2.188,-26.438,1.391,-0.188,9.867,0.673,-0.057,-0.042,-0.736,1,-38.402,-8.129,0.000,27.675,2,41.519428,-86.239815,0.000000,0.086,252.399994,11,46,51,4,12
67,5.076378,0,-0.055,-0.062,0.004,8.020,-0.859,95.088,-0.783,0.224,0.112,-26.250,0.625,-27.875,1.398,-0.180,9.875,0.673,-0.057,-0.042,-0.736,1,-45.767,-8.875,0.000,27.675,2,41.519428,-86.239815,0.000000,0.098,252.399994,11,46,51,8,12
68,5.139378,0,-0.133,-0.016,-0.035,8.027,-0.903,95.090,-1.119,-0.224,-0.112,-28.562,3.750,-28.812,1.398,-0.188,9.875,0.673,-0.057,-0.041,-0.736,1,-45.767,-8.875,0.000,27.675,2,41.519428,-86.239815,0.000000,0.089,252.399994,11,46,51,16,12
69,5.186378,0,-0.168,0.633,0.348,8.025,-0.978,95.079,-0.560,0.448,-0.112,-27.188,1.062,-26.312,1.398,-0.188,9.875,0.673,-0.057,-0.041,-0.736,1,-38.402,-8.129,0.000,27.675,2,41.519428,-86.239815,0.000000,0.096,252.300003,11,46,51,20,12
70,5.260378,0,-0.141,0.359,-0.148,8.035,-0.978,95.074,1.902,0.000,0.336,-26.188,3.812,-28.562,1.398,-0.188,9.875,0.673,-0.057,-0.041,-0.736,1,-45.767,-8.875,0.000,27.675,2,41.519428,-86.239815,0.000000,0.162,252.300003,11,46,51,28,12
71,5.306378,0,0.398,-0.125,0.234,8.052,-0.794,95.072,4.476,-0.671,0.224,-28.625,0.875,-27.812,1.406,-0.125,9.875,0.673,-0.056,-0.042,-0.736,1,-45.767,-8.875,0.000,27.675,2,41.519428,-86.239815,0.000000,0.255,252.300003,11,46,51,32,12
72,5.379378,0,0.359,-0.371,0.043,8.086,-0.570,95.058,0.112,0.112,0.336,-29.062,0.750,-26.938,1.414,-0.109,9.875,0.673,-0.055,-0.044,-0.736,1,-42.611,-8.563,0.000,27.675,2,41.519428,-86.239815,0.000000,0.049,252.300003,11,46,51,40,12
73,5.459378,0,-0.375,-0.371,-0.301,8.075,-0.659,95.002,-4.029,1.007,0.783,-26.875,2.562,-28.250,1.414,-0.133,9.875,0.674,-0.056,-0.043,-0.736,1,-45.767,-8.875,0.000,27.675,2,41.519428,-86.239815,0.000000,0.228,252.399994,11,46,51,48,12
74,5.539378,0,-0.148,0.633,-0.070,8.059,-0.863,95.008,0.671,-1.119,-1.231,-29.438,0.812,-26.938,1.414,-0.148,9.875,0.673,-0.057,-0.042,-0.736,1,-42.611,-8.563,0.000,27.675,2,41.519428,-86.239815,0.000000,0.088,252.300003,11,46,51,56,12
75,5.666378,0,0.238,0.730,-0.379,8.070,-0.752,95.095,3.469,-1.007,0.448,-26.688,0.875,-27.125,1.414,-0.102,9.875,0.673,-0.056,-0.043,-0.736,1,-42.611,-8.563,0.000,27.675,2,41.519428,-86.239815,0.000000,0.093,252.300003,11,46,51,68,12
76,5.739378,0,-0.062,0.473,0.035,8.032,-0.579,95.043,-1.790,0.783,-1.679,-26.625,0.750,-28.312,1.406,-0.102,9.883,0.673,-0.055,-0.044,-0.736,1,-48.923,-9.176,0.000,27.675,2,41.519428,-86.239815,0.000000,0.154,252.300003,11,46,51,76,12
77,5.784378,0,-0.176,0.512,0.035,8.047,-0.696,95.059,-1.119,-0.224,0.895,-26.500,-0.125,-28.500,1.406,-0.109,9.883,0.673,-0.056,-0.043,-0.736,1,-45.767,-8.875,0.000,27.675,2,41.519428,-86.239815,0.000000,0.059,252.300003,11,46,51,80,12
78,5.857378,0,-0.141,0.363,-0.004,8.032,-0.579,95.043,3.245,-0.895,1.007,-27.062,2.438,-30.688,1.398,-0.094,9.883,0.673,-0.055,-0.044,-0.736,1,-48.923,-9.176,0.000,27.675,2,41.519428,-86.239815,0.000000,0.120,252.300003,11,46,51,88,12
79,5.904378,0,-0.324,0.770,0.188,8.083,-0.504,95.013,0.336,0.224,0.112,-28.500,0.438,-29.000,1.406,-0.070,9.883,0.674,-0.055,-0.044,-0.736,1,-42.611,-8.563,0.000,27.675,2,41.519428,-86.239815,0.000000,0.032,252.300003,11,46,51,92,12
80,5.944378,0,-0.301,-0.738,0.035,8.101,-0.567,95.019,-1.007,0.671,-1.007,-29.562,3.312,-30.688,1.414,-0.086,9.883,0.674,-0.055,-0.044,-0.736,1,-38.402,-8.129,0.000,27.675,2,41.519428,-86.239815,0.000000,0.035,252.300003,11,46,51,96,12
81,6.019378,0,0.352,-1.496,-0.461,8.063,-0.595,95.076,-0.671,1.007,-1.231,-27.875,-1.688,-27.312,1.406,-0.094,9.883,0.673,-0.055,-0.044,-0.736,1,-42.611,-8.563,0.000,27.675,2,41.519428,-86.239815,0.000000,0.228,252.300003,11,46,52,4,12
82,6.063378,0,0.016,-0.012,0.188,8.062,-0.906,95.099,-5.483,-0.224,0.336,-28.562,-0.438,-25.500,1.406,-0.156,9.883,0.673,-0.057,-0.042,-0.736,1,-38.402,-8.129,0.000,27.675,2,41.519428,-86.239815,0.000000,0.111,252.300003,11,46,52,8,12
83,6.217378,0,0.098,0.520,0.266,8.019,-0.827,95.125,4.812,0.560,0.783,-28.250,1.125,-27.500,1.398,-0.141,9.883,0.673,-0.056,-0.042,-0.737,1,-42.611,-8.563,0.000,27.675,2,41.519424,-86.239815,0.000000,0.108,252.300003,11,46,52,24,12
84,6.298378,0,0.059,0.855,-0.117,8.037,-0.478,95.060,7.386,0.448,1.455,-28.750,3.062,-29.938,1.398,-0.086,9.883,0.673,-0.055,-0.044,-0.736,1,-53.132,-9.562,0.000,27.675,2,41.519424,-86.239815,0.000000,0.120,252.300003,11,46,52,32,12
85,6.344378,0,0.266,-0.148,-0.043,8.139,-0.980,95.059,-7.386,-1.679,0.000,-26.500,2.875,-28.438,1.422,-0.172,9.883,0.673,-0.058,-0.042,-0.736,1,-53.132,-9.562,0.000,27.675,2,41.519424,-86.239815,0.000000,0.170,252.300003,11,46,52,36,12
86,6.380378,0,0.082,-0.391,-0.078,8.147,-1.158,95.061,1.455,-0.448,0.895,-27.688,3.062,-28.750,1.414,-0.195,9.883,0.673,-0.059,-0.041,-0.736,1,-48.923,-9.176,0.000,27.675,2,41.519424,-86.239815,0.000000,0.147,252.300003,11,46,52,40,12
87,6.458378,0,-0.078,-0.316,-0.086,8.152,-1.154,95.052,5.148,0.224,0.560,-27.625,2.375,-28.250,1.422,-0.172,9.891,0.673,-0.059,-0.041,-0.736,1,-53.132,-9.562,0.000,27.675,2,41.519424,-86.239815,0.000000,0.069,252.300003,11,46,52,48,12
88,6.538378,0,0.168,0.277,-0.086,8.123,-0.626,95.024,7.050,0.560,0.224,-26.875,2.500,-27.875,1.406,-0.078,9.891,0.673,-0.056,-0.044,-0.736,1,-56.288,-9.842,0.000,27.675,2,41.519424,-86.239815,0.000000,0.150,252.199997,11,46,52,56,12
89,6.618378,0,0.129,0.281,-0.012,8.079,-0.413,95.040,-4.812,-0.224,-0.448,-28.500,-0.562,-26.750,1.406,-0.078,9.891,0.673,-0.054,-0.045,-0.736,1,-45.767,-8.875,0.000,27.675,2,41.519424,-86.239815,0.000000,0.111,252.199997,11,46,52,64,12
90,6.699378,0,-0.332,0.543,0.105,8.093,-0.831,95.084,-0.783,0.560,-0.671,-29.125,1.062,-26.688,1.406,-0.141,9.883,0.673,-0.057,-0.042,-0.736,1,-53.132,-9.562,0.000,27.675,2,41.519424,-86.239815,0.000000,0.152,252.199997,11,46,52,72,12
91,6.777378,0,-0.629,-0.156,0.133,8.051,-0.568,95.049,6.602,1.119,0.783,-27.062,0.062,-25.750,1.398,-0.055,9.898,0.673,-0.055,-0.044,-0.736,1,-45.767,-8.875,0.000,27.675,2,41.519424,-86.239815,0.000000,0.069,252.199997,11,46,52,80,12
92,6.903378,0,0.137,0.285,-0.094,8.038,-0.147,95.043,-0.560,0.000,-1.790,-26.375,1.875,-28.188,1.398,-0.023,9.891,0.674,-0.053,-0.046,-0.736,1,-45.767,-8.875,0.000,27.675,2,41.519424,-86.239815,0.000000,0.110,252.199997,11,46,52,92,12
93,6.944378,0,-0.285,-0.309,-0.164,8.037,-0.467,95.076,-2.014,-0.671,-1.231,-27.625,1.562,-27.250,1.398,-0.125,9.891,0.673,-0.054,-0.044,-0.736,1,-53.132,-9.562,0.000,27.675,2,41.519424,-86.239815,0.000000,0.130,252.199997,11,46,52,96,12
94,7.074378,0,0.176,0.441,0.371,8.078,-0.710,95.123,2.798,-0.224,-0.560,-29.188,2.500,-28.188,1.398,-0.117,9.891,0.673,-0.056,-0.043,-0.736,1,-53.132,-9.562,0.000,27.675,2,41.519424,-86.239815,0.000000,0.017,252.199997,11,46,53,8,12
95,7.183378,0,-0.293,-0.547,-0.586,8.065,-0.527,95.116,-1.790,-0.448,2.238,-27.750,2.875,-27.500,1.406,-0.078,9.891,0.673,-0.055,-0.044,-0.736,1,-53.132,-9.562,0.000,27.675,2,41.519424,-86.239815,0.000000,0.096,252.199997,11,46,53,20,12
96,7.299378,0,-0.332,-0.508,-0.434,8.130,-0.776,94.999,-3.693,-0.112,-1.119,-26.688,4.000,-27.812,1.406,-0.133,9.891,0.674,-0.057,-0.043,-0.736,1,-53.132,-9.562,0.000,27.675,2,41.519424,-86.239815,0.000000,0.083,252.199997,11,46,53,32,12
97,7.379378,0,0.090,-0.043,0.141,8.113,-0.740,95.031,-2.574,0.000,-1.231,-26.312,4.250,-27.500,1.406,-0.141,9.891,0.673,-0.057,-0.043,-0.736,1,-42.611,-8.563,0.000,27.675,2,41.519424,-86.239815,0.000000,0.054,252.199997,11,46,53,40,12
98,7.457378,0,-0.102,-0.379,-0.012,8.099,-0.541,94.971,3.469,-0.224,0.224,-29.875,0.812,-26.562,1.406,-0.102,9.891,0.674,-0.055,-0.044,-0.735,1,-35.246,-7.788,0.000,27.675,2,41.519424,-86.239815,0.000000,0.093,252.199997,11,46,53,48,12
99,7.579378,0,-0.016,0.203,-0.051,8.082,-0.600,94.997,1.007,0.560,0.448,-30.562,3.500,-27.938,1.398,-0.094,9.891,0.674,-0.055,-0.044,-0.736,1,-45.767,-8.875,0.000,27.675,2,41.519424,-86.239815,0.000000,0.177,252.199997,11,46,53,60,12
100,7.622378,0,-0.016,0.172,-0.012,8.089,-0.862,94.998,0.671,-0.112,-0.224,-27.500,1.625,-29.375,1.406,-0.156,9.891,0.674,-0.057,-0.042,-0.736,1,-48.923,-9.176,0.000,27.675,2,41.519424,-86.239815,0.000000,0.191,252.199997,11,46,53,64,12
101,7.661378,0,-0.023,-0.086,-0.051,8.095,-0.792,95.003,2.686,0.000,0.112,-26.688,1.062,-28.062,1.406,-0.133,9.891,0.674,-0.057,-0.043,-0.736,1,-42.611,-8.563,0.000,27.675,2,41.519424,-86.239815,0.000000,0.194,252.100006,11,46,53,68,12
102,7.781378,0,0.016,-0.070,0.105,8.087,-0.718,94.998,2.238,0.336,0.224,-28.000,3.125,-30.875,1.406,-0.125,9.891,0.674,-0.056,-0.043,-0.736,1,-45.767,-8.875,0.000,27.675,2,41.519424,-86.239815,0.000000,0.226,252.100006,11,46,53,80,12
103,7.899378,0,0.051,-0.156,0.105,8.064,-0.642,94.974,1.231,0.224,0.336,-28.062,3.625,-30.188,1.391,-0.141,9.891,0.674,-0.056,-0.043,-0.736,1,-48.923,-9.176,0.000,27.675,2,41.519424,-86.239815,0.000000,0.231,252.199997,11,46,53,92,12
104,7.944378,0,-0.047,0.129,0.027,8.065,-0.775,94.984,-1.679,0.000,0.112,-27.375,2.688,-26.750,1.383,-0.133,9.891,0.674,-0.056,-0.043,-0.736,1,-56.288,-9.842,0.000,27.675,2,41.519424,-86.239815,0.000000,0.221,252.100006,11,46,53,96,12
105,8.016378,0,0.098,0.043,-0.012,8.062,-0.715,94.989,1.119,-0.224,-0.112,-27.375,4.125,-29.875,1.398,-0.133,9.891,0.674,-0.056,-0.043,-0.736,1,-59.445,-10.114,0.000,27.675,2,41.519424,-86.239815,0.000000,0.074,252.100006,11,46,54,4,12
106,8.066378,0,-0.062,-0.109,-0.059,8.054,-0.631,94.985,1.343,0.224,0.224,-26.438,3.000,-29.312,1.406,-0.094,9.898,0.674,-0.055,-0.043,-0.736,1,-42.611,-8.563,0.000,27.675,2,41.519424,-86.239815,0.000000,0.051,252.100006,11,46,54,8,12
107,8.137378,0,-0.023,-0.117,0.020,8.049,-0.533,94.976,0.112,0.000,-0.112,-25.562,1.688,-27.438,1.406,-0.086,9.898,0.674,-0.055,-0.044,-0.736,1,-38.402,-8.129,0.000,27.675,2,41.519424,-86.239815,0.000000,0.074,252.100006,11,46,54,16,12
108,8.228378,0,0.051,0.059,0.012,8.055,-0.557,94.985,-1.790,-0.224,-0.336,-28.500,3.312,-29.625,1.406,-0.102,9.906,0.674,-0.055,-0.044,-0.736,1,-48.923,-9.176,0.000,27.675,2,41.519424,-86.239815,0.000000,0.155,252.100006,11,46,54,24,12
109,8.340378,0,0.082,-0.109,-0.094,8.064,-0.755,94.986,-1.902,-0.224,0.112,-27.500,0.625,-27.062,1.414,-0.133,9.898,0.674,-0.056,-0.043,-0.736,1,-42.611,-8.563,0.000,27.675,2,41.519424,-86.239815,0.000000,0.101,252.100006,11,46,54,36,12
110,8.381378,0,0.043,0.059,-0.102,8.084,-0.753,94.996,1.902,0.448,0.560,-30.312,1.312,-27.500,1.414,-0.109,9.906,0.674,-0.056,-0.043,-0.736,1,-35.246,-7.788,0.000,27.675,2,41.519424,-86.239815,0.000000,0.064,252.100006,11,46,54,40,12
111,8.466378,0,0.008,0.098,-0.180,8.055,-0.558,94.965,-1.119,0.224,0.336,-29.500,1.062,-26.625,1.414,-0.102,9.906,0.674,-0.055,-0.044,-0.735,1,-45.767,-8.875,0.000,27.675,2,41.519424,-86.239815,0.000000,0.181,252.100006,11,46,54,48,12
112,8.544378,0,-0.070,-0.141,0.148,8.083,-0.734,94.987,-4.029,-0.448,-0.671,-26.375,5.000,-28.500,1.414,-0.133,9.883,0.674,-0.056,-0.043,-0.736,1,-38.402,-8.129,0.000,27.675,2,41.519424,-86.239815,0.000000,0.150,252.100006,11,46,54,56,12
113,8.629378,0,0.168,-0.055,-0.094,8.112,-0.940,95.007,2.574,0.224,0.000,-29.875,4.000,-27.688,1.406,-0.148,9.898,0.673,-0.058,-0.042,-0.736,1,-42.611,-8.563,0.000,27.675,2,41.519424,-86.239815,0.000000,0.182,252.100006,11,46,54,64,12
114,8.704378,0,-0.008,0.059,-0.020,8.092,-0.713,94.998,2.574,0.448,0.448,-27.312,-0.188,-27.750,1.422,-0.117,9.898,0.674,-0.056,-0.043,-0.736,1,-42.611,-8.563,0.000,27.675,2,41.519424,-86.239815,0.000000,0.236,252.100006,11,46,54,72,12
115,8.784378,0,-0.117,-0.027,-0.133,8.079,-0.532,94.972,-2.126,-0.112,-0.112,-28.625,3.750,-28.562,1.414,-0.117,9.891,0.674,-0.055,-0.044,-0.735,1,-35.246,-7.788,0.000,27.675,2,41.519424,-86.239815,0.000000,0.078,252.100006,11,46,54,80,12
116,8.821378,0,0.051,-0.035,-0.094,8.100,-0.768,94.990,-2.574,-0.112,-0.224,-28.750,1.062,-27.125,1.406,-0.133,9.898,0.674,-0.057,-0.043,-0.736,1,-35.246,-7.788,0.000,27.675,2,41.519424,-86.239815,0.000000,0.137,252.100006,11,46,54,84,12
117,8.904378,0,0.082,-0.062,-0.020,8.112,-0.817,94.986,-0.448,-0.112,0.112,-28.875,2.438,-27.875,1.414,-0.133,9.898,0.674,-0.057,-0.043,-0.736,1,-42.611,-8.563,0.000,27.675,2,41.519424,-86.239815,0.000000,0.120,252.100006,11,46,54,92,12
118,8.951378,0,0.000,0.035,0.020,8.110,-0.778,94.984,2.014,0.224,0.112,-26.688,4.312,-27.938,1.422,-0.125,9.898,0.674,-0.057,-0.043,-0.736,1,-42.611,-8.563,0.000,27.675,2,41.519424,-86.239815,0.000000,0.138,252.100006,11,46,54,96,12
119,8.979378,0,-0.078,-0.012,-0.059,8.103,-0.629,94.984,0.783,0.000,0.112,-26.938,-0.375,-26.938,1.422,-0.117,9.898,0.674,-0.056,-0.044,-0.736,1,-38.402,-8.129,0.000,27.675,2,41.519424,-86.239815,0.000000,0.187,252.100006,11,46,55,0,12
120,9.064378,0,-0.031,0.020,-0.020,8.103,-0.629,94.984,-0.224,0.000,0.112,-26.625,4.562,-29.625,1.422,-0.109,9.898,0.674,-0.056,-0.044,-0.736,1,-42.611,-8.563,0.000,27.675,2,41.519424,-86.239815,0.000000,0.105,252.100006,11,46,55,8,12
121,9.101378,0,0.043,0.105,-0.051,8.104,-0.639,94.984,-0.560,-0.112,-0.112,-28.625,3.812,-29.000,1.414,-0.109,9.891,0.674,-0.056,-0.044,-0.736,1,-38.402,-8.129,0.000,27.675,2,41.519424,-86.239815,0.000000,0.174,252.100006,11,46,55,12,12
122,9.181378,0,0.043,0.027,0.105,8.110,-0.682,95.000,-0.783,-0.112,-0.224,-27.125,4.812,-28.875,1.414,-0.109,9.891,0.674,-0.056,-0.043,-0.736,1,-38.402,-8.129,0.000,27.675,2,41.519424,-86.239815,0.000000,0.076,252.100006,11,46,55,20,12
123,9.220378,0,-0.078,-0.164,0.066,8.122,-0.721,95.008,0.000,0.112,-0.112,-26.938,0.562,-28.750,1.422,-0.117,9.891,0.674,-0.056,-0.043,-0.736,1,-42.611,-8.563,0.000,27.675,2,41.519424,-86.239815,0.000000,0.008,252.100006,11,46,55,24,12
124,9.261378,0,0.043,-0.043,0.105,8.117,-0.706,95.014,0.560,0.224,-0.112,-29.500,1.125,-27.125,1.414,-0.125,9.891,0.673,-0.056,-0.043,-0.736,1,-42.611,-8.563,0.000,27.675,2,41.519424,-86.239815,0.000000,0.191,252.100006,11,46,55,28,12
125,9.379378,0,0.082,0.043,-0.020,8.110,-0.682,95.010,0.671,0.112,0.112,-28.250,0.562,-27.875,1.414,-0.133,9.898,0.674,-0.056,-0.043,-0.736,1,-38.402,-8.129,0.000,27.675,2,41.519424,-86.239815,0.000000,0.083,252.100006,11,46,55,40,12
126,9.463378,0,-0.117,0.004,-0.020,8.105,-0.668,95.002,-1.231,0.224,-0.112,-27.750,2.875,-27.562,1.422,-0.133,9.898,0.674,-0.056,-0.043,-0.736,1,-42.611,-8.563,0.000,27.675,2,41.519424,-86.239815,0.000000,0.044,252.100006,11,46,55,48,12
127,9.543378,0,0.051,-0.332,0.066,8.110,-0.767,95.000,0.560,0.000,-0.448,-26.750,2.062,-28.750,1.414,-0.141,9.891,0.674,-0.057,-0.043,-0.736,1,-35.246,-7.788,0.000,27.675,2,41.519424,-86.239815,0.000000,0.051,252.100006,11,46,55,56,12
128,9.667378,0,-0.117,0.379,-0.172,8.106,-0.685,95.040,1.455,0.448,-0.895,-29.000,0.500,-27.000,1.414,-0.164,9.898,0.673,-0.056,-0.043,-0.736,1,-42.611,-8.563,0.000,27.675,2,41.519424,-86.239815,0.000000,0.091,252.100006,11,46,55,68,12
129,9.744378,0,-0.164,0.426,0.105,8.090,-0.649,95.062,-1.007,-0.336,-0.671,-28.750,2.000,-28.938,1.422,-0.164,9.898,0.673,-0.056,-0.043,-0.736,1,-38.402,-8.129,0.000,27.675,2,41.519424,-86.239815,0.000000,0.083,252.100006,11,46,55,76,12
130,9.780378,0,0.000,0.129,-0.059,8.098,-0.825,95.105,-1.902,0.336,0.895,-26.375,1.000,-26.438,1.422,-0.180,9.898,0.673,-0.057,-0.042,-0.736,1,-35.246,-7.788,0.000,27.675,2,41.519424,-86.239815,0.000000,0.201,252.100006,11,46,55,80,12
131,9.863378,0,0.000,0.090,-0.020,8.101,-0.887,95.066,0.112,-0.112,0.336,-26.688,0.938,-27.688,1.422,-0.180,9.898,0.673,-0.057,-0.042,-0.736,1,-38.402,-8.129,0.000,27.675,2,41.519424,-86.239815,0.000000,0.054,252.100006,11,46,55,88,12
132,9.900378,0,0.035,-0.133,-0.012,8.109,-0.856,95.073,1.679,0.000,-0.336,-27.500,1.000,-27.625,1.422,-0.156,9.891,0.673,-0.057,-0.042,-0.736,1,-38.402,-8.129,0.000,27.675,2,41.519424,-86.239815,0.000000,0.088,252.100006,11,46,55,92,12
133,9.949378,0,0.344,0.090,0.250,8.119,-0.740,95.091,0.671,0.112,-0.224,-29.062,1.562,-28.125,1.422,-0.148,9.898,0.673,-0.057,-0.043,-0.736,1,-42.611,-8.563,0.000,27.675,2,41.519424,-86.239815,0.000000,0.061,252.100006,11,46,55,96,12
134,10.023378,0,0.113,0.355,0.059,8.118,-0.729,95.111,-0.783,0.448,-0.224,-27.812,0.562,-28.375,1.422,-0.141,9.898,0.673,-0.057,-0.043,-0.736,1,-38.402,-8.129,0.000,27.675,2,41.519424,-86.239815,0.000000,0.052,252.100006,11,46,56,4,12
135,10.069378,0,-0.156,0.137,0.105,8.117,-0.794,95.102,-0.895,-0.112,0.336,-25.875,1.625,-28.688,1.422,-0.148,9.891,0.673,-0.057,-0.043,-0.736,1,-35.246,-7.788,0.000,27.675,2,41.519424,-86.239815,0.000000,0.122,252.100006,11,46,56,8,12
136,10.144378,0,-0.309,-0.133,-0.172,8.113,-0.821,95.080,1.119,-0.112,0.560,-28.438,1.625,-27.375,1.422,-0.148,9.898,0.673,-0.057,-0.042,-0.736,1,-38.402,-8.129,0.000,27.675,2,41.519424,-86.239815,0.000000,0.057,252.100006,11,46,56,16,12
137,10.260378,0,0.113,0.066,0.172,8.118,-0.722,95.062,2.126,0.000,-1.007,-27.500,1.375,-28.188,1.422,-0.117,9.898,0.673,-0.056,-0.043,-0.736,1,-42.611,-8.563,0.000,27.675,2,41.519424,-86.239815,0.000000,0.218,252.100006,11,46,56,28,12
138,10.344378,0,-0.156,0.332,0.059,8.134,-0.630,95.094,-1.119,-0.336,0.224,-27.125,1.250,-27.750,1.422,-0.117,9.898,0.673,-0.056,-0.044,-0.736,1,-38.402,-8.129,0.000,27.675,2,41.519424,-86.239815,0.000000,0.061,252.100006,11,46,56,36,12
139,10.378457,0,0.039,-0.395,-0.102,8.123,-0.727,95.067,0.224,-0.224,-0.336,-29.500,1.625,-28.500,1.383,-0.086,9.898,0.673,-0.057,-0.043,-0.736,1,-35.246,-7.788,0.000,27.675,2,41.519424,-86.239815,0.000000,0.142,252.100006,11,46,56,40,12
140,10.463378,0,0.039,-0.309,-0.094,8.121,-0.676,95.085,0.560,0.000,-0.336,-27.312,3.312,-28.562,1.375,-0.094,9.906,0.673,-0.056,-0.043,-0.736,1,-38.402,-8.129,0.000,27.675,2,41.519424,-86.239815,0.000000,0.152,252.100006,11,46,56,48,12
141,10.542378,0,0.051,0.113,-0.141,8.097,-0.701,95.094,-0.448,0.000,-0.112,-27.750,-0.562,-26.938,1.414,-0.133,9.906,0.673,-0.056,-0.043,-0.736,1,-38.402,-8.129,0.000,27.675,2,41.519424,-86.239815,0.000000,0.113,252.100006,11,46,56,56,12
142,10.579378,0,0.008,0.121,-0.102,8.105,-0.766,95.089,-0.783,-0.224,0.224,-28.875,0.125,-28.625,1.422,-0.141,9.906,0.673,-0.057,-0.043,-0.736,1,-42.611,-8.563,0.000,27.675,2,41.519424,-86.239815,0.000000,0.047,252.100006,11,46,56,60,12
143,10.664378,0,-0.461,-1.250,-0.102,8.094,-0.715,95.118,0.895,0.224,-0.671,-28.938,0.375,-28.250,1.422,-0.133,9.906,0.673,-0.056,-0.043,-0.736,1,-35.246,-7.788,0.000,27.675,2,41.519424,-86.239822,0.000000,0.051,252.100006,11,46,56,68,12
144,10.699378,0,0.266,-0.242,-0.293,8.093,-0.601,95.111,1.343,-0.224,0.448,-28.875,2.000,-27.375,1.422,-0.117,9.906,0.673,-0.056,-0.044,-0.736,1,-35.246,-7.788,0.000,27.675,2,41.519424,-86.239815,0.000000,0.127,252.100006,11,46,56,72,12
145,10.782378,0,0.035,-0.125,-0.141,8.107,-0.585,95.112,0.000,-0.336,0.224,-27.625,1.875,-27.438,1.422,-0.117,9.906,0.673,-0.056,-0.044,-0.736,1,-35.246,-7.788,0.000,27.675,2,41.519424,-86.239815,0.000000,0.066,252.100006,11,46,56,80,12
146,10.819378,0,-0.156,-0.109,0.012,8.114,-0.620,95.109,-0.783,0.000,0.000,-29.312,-0.125,-26.938,1.422,-0.133,9.906,0.673,-0.056,-0.044,-0.736,1,-35.246,-7.788,0.000,27.675,2,41.519424,-86.239822,0.000000,0.059,252.100006,11,46,56,84,12
147,10.902378,0,-0.117,0.043,-0.180,8.111,-0.675,95.105,0.783,0.112,-0.336,-26.438,2.500,-28.062,1.422,-0.133,9.906,0.673,-0.056,-0.043,-0.736,1,-38.402,-8.129,0.000,27.675,2,41.519424,-86.239822,0.000000,0.081,252.100006,11,46,56,92,12
148,10.957378,0,0.121,-0.250,0.090,8.105,-0.641,95.103,1.679,0.000,-0.112,-28.562,0.250,-27.875,1.414,-0.117,9.906,0.673,-0.056,-0.044,-0.736,1,-35.246,-7.788,0.000,27.675,2,41.519424,-86.239822,0.000000,0.032,252.100006,11,46,56,96,12
149,11.023378,0,0.043,-0.172,0.051,8.114,-0.505,95.117,0.783,-0.112,-0.112,-29.188,1.438,-27.250,1.414,-0.109,9.906,0.673,-0.055,-0.044,-0.736,1,-32.090,-7.431,0.000,27.675,2,41.519424,-86.239822,0.000000,0.177,252.199997,11,46,57,4,12
150,11.068378,0,-0.102,0.172,-0.180,8.099,-0.513,95.087,-0.336,0.448,0.671,-28.812,-1.438,-26.625,1.406,-0.109,9.906,0.673,-0.055,-0.044,-0.736,1,-38.402,-8.129,0.000,27.675,2,41.519424,-86.239822,0.000000,0.093,252.199997,11,46,57,8,12
151,11.143378,0,-0.238,0.141,-0.117,8.102,-0.583,95.077,-1.790,-0.112,-0.112,-27.125,4.375,-28.000,1.406,-0.117,9.906,0.673,-0.056,-0.044,-0.736,1,-35.246,-7.788,0.000,27.675,2,41.519424,-86.239822,0.000000,0.145,252.199997,11,46,57,16,12
152,11.269378,0,0.082,-0.211,0.227,8.108,-0.712,95.083,-2.910,-0.224,-0.224,-29.000,2.375,-25.812,1.375,-0.078,9.883,0.673,-0.056,-0.043,-0.736,1,-32.090,-7.431,0.000,27.675,2,41.519424,-86.239822,0.000000,0.123,252.199997,11,46,57,28,12
153,11.388378,0,0.199,-0.102,0.004,8.104,-0.839,95.104,2.350,0.112,0.448,-28.500,2.625,-27.562,1.406,-0.141,9.914,0.673,-0.057,-0.042,-0.736,1,-38.402,-8.129,0.000,27.675,2,41.519424,-86.239822,0.000000,0.049,252.300003,11,46,57,40,12
154,11.462378,0,-0.055,-0.234,-0.156,8.080,-0.638,95.088,-1.119,0.224,0.112,-28.312,1.125,-28.062,1.438,-0.125,9.922,0.673,-0.056,-0.043,-0.736,1,-35.246,-7.788,0.000,27.675,2,41.519424,-86.239822,0.000000,0.069,252.300003,11,46,57,48,12
155,11.544379,0,-0.109,0.312,0.043,8.088,-0.724,95.052,-1.790,-0.224,0.112,-28.438,2.062,-27.875,1.414,-0.133,9.914,0.673,-0.056,-0.043,-0.736,1,-35.246,-7.788,0.000,27.675,2,41.519424,-86.239822,0.000000,0.096,252.300003,11,46,57,56,12
156,11.617378,0,0.039,-0.379,-0.082,8.105,-0.767,95.069,1.231,-0.448,0.336,-27.312,3.312,-28.562,1.383,-0.102,9.922,0.673,-0.057,-0.043,-0.736,1,-38.402,-8.129,0.000,27.675,2,41.519424,-86.239822,0.000000,0.123,252.399994,11,46,57,64,12
157,11.667378,0,0.168,0.066,0.004,8.089,-0.620,95.060,1.007,0.448,-0.112,-26.500,2.750,-27.750,1.398,-0.117,9.914,0.673,-0.056,-0.044,-0.736,1,-35.246,-7.788,0.000,27.675,2,41.519424,-86.239822,0.000000,0.064,252.399994,11,46,57,68,12
158,11.707378,0,-0.047,0.340,-0.066,8.093,-0.605,95.051,0.000,0.000,0.112,-29.250,3.062,-29.688,1.422,-0.125,9.906,0.673,-0.056,-0.044,-0.736,1,-42.611,-8.563,0.000,27.675,2,41.519424,-86.239822,0.000000,0.015,252.399994,11,46,57,72,12
159,11.781378,0,-0.316,-0.133,0.125,8.089,-0.621,95.040,-0.448,0.000,0.448,-28.562,-1.062,-25.562,1.430,-0.109,9.906,0.673,-0.056,-0.044,-0.736,1,-38.402,-8.129,0.000,27.675,2,41.519424,-86.239822,0.000000,0.145,252.399994,11,46,57,80,12
160,11.827378,0,0.031,-0.180,0.219,8.104,-0.636,95.034,0.000,0.224,-0.336,-26.938,3.312,-29.062,1.391,-0.109,9.898,0.673,-0.056,-0.044,-0.736,1,-42.611,-8.563,0.000,27.675,2,41.519424,-86.239822,0.000000,0.201,252.399994,11,46,57,84,12
161,11.946378,0,0.305,-0.059,0.059,8.119,-0.628,95.069,-0.336,-1.007,-0.783,-27.625,2.000,-27.875,1.383,-0.109,9.898,0.673,-0.056,-0.044,-0.736,1,-38.402,-8.129,0.000,27.675,2,41.519424,-86.239822,0.000000,0.164,252.399994,11,46,57,96,12
162,12.020378,0,0.352,0.324,0.105,8.109,-0.635,95.108,0.336,0.112,-0.336,-27.312,-0.062,-28.312,1.414,-0.109,9.891,0.673,-0.056,-0.044,-0.736,1,-35.246,-7.788,0.000,27.675,2,41.519424,-86.239822,0.000000,0.194,252.399994,11,46,58,4,12
163,12.070378,0,-0.262,-0.309,0.020,8.100,-0.647,95.087,0.448,0.000,0.112,-28.188,0.188,-27.500,1.414,-0.086,9.898,0.673,-0.056,-0.044,-0.736,1,-38.402,-8.129,0.000,27.675,2,41.519424,-86.239822,0.000000,0.181,252.399994,11,46,58,8,12
164,12.140378,0,-0.086,-0.027,0.051,8.098,-0.597,95.091,0.112,-0.112,-0.224,-27.125,0.875,-27.312,1.398,-0.102,9.906,0.673,-0.056,-0.044,-0.736,1,-38.402,-8.129,0.000,27.675,2,41.519424,-86.239822,0.000000,0.137,252.399994,11,46,58,16,12
165,12.187378,0,-0.062,0.242,-0.066,8.103,-0.601,95.101,-0.560,-0.224,-0.560,-27.812,3.188,-27.750,1.367,-0.102,9.906,0.673,-0.056,-0.044,-0.736,1,-35.246,-7.788,0.000,27.675,2,41.519424,-86.239822,0.000000,0.086,252.399994,11,46,58,20,12
166,12.263378,0,0.199,0.074,0.020,8.105,-0.649,95.132,-1.007,-0.224,-0.336,-27.625,2.750,-28.875,1.375,-0.086,9.898,0.673,-0.056,-0.044,-0.736,1,-35.246,-7.788,0.000,27.675,2,41.519424,-86.239822,0.000000,0.088,252.399994,11,46,58,28,12
167,12.384378,0,0.480,-0.090,-0.164,8.106,-0.667,95.151,-0.224,0.112,0.448,-27.938,1.312,-27.375,1.398,-0.078,9.891,0.673,-0.056,-0.043,-0.737,1,-42.611,-8.563,0.000,27.675,2,41.519424,-86.239822,0.000000,0.088,252.399994,11,46,58,40,12
168,12.458378,0,-0.148,0.141,-0.043,8.101,-0.664,95.126,-0.224,0.336,0.895,-26.812,1.438,-27.000,1.414,-0.078,9.883,0.673,-0.056,-0.043,-0.736,1,-45.767,-8.875,0.000,27.675,2,41.519424,-86.239822,0.000000,0.135,252.399994,11,46,58,48,12
169,12.538378,0,-0.117,0.227,-0.012,8.065,-0.644,95.078,-0.336,-0.112,0.224,-30.125,2.812,-27.562,1.422,-0.086,9.891,0.673,-0.056,-0.043,-0.736,1,-45.767,-8.875,0.000,27.675,2,41.519424,-86.239822,0.000000,0.160,252.399994,11,46,58,56,12
170,12.578378,0,0.215,0.363,0.266,8.104,-0.633,95.079,3.917,-0.448,1.007,-28.625,0.938,-28.438,1.438,-0.055,9.883,0.673,-0.056,-0.044,-0.736,1,-45.767,-8.875,0.000,27.675,2,41.519424,-86.239822,0.000000,0.208,252.399994,11,46,58,60,12
171,12.660378,0,0.176,-0.082,-0.043,8.128,-0.403,95.010,3.469,0.448,1.902,-28.812,-1.750,-26.625,1.438,-0.047,9.883,0.674,-0.055,-0.045,-0.736,1,-48.923,-9.176,0.000,27.675,2,41.519424,-86.239822,0.000000,0.064,252.399994,11,46,58,68,12
172,12.786378,0,-0.477,-0.363,0.258,8.118,-0.295,94.934,-0.895,-0.112,0.448,-29.562,1.875,-27.750,1.445,-0.023,9.883,0.674,-0.054,-0.046,-0.735,1,-45.767,-8.875,0.000,27.675,2,41.519424,-86.239822,0.000000,0.155,252.399994,11,46,58,80,12
173,12.860378,0,0.098,0.242,-0.004,8.140,-0.352,94.954,-0.783,0.000,-0.224,-28.562,3.000,-28.062,1.438,-0.062,9.883,0.674,-0.054,-0.046,-0.735,1,-45.767,-8.875,0.000,27.675,2,41.519424,-86.239822,0.000000,0.142,252.399994,11,46,58,88,12
174,12.905378,0,0.215,-0.289,-0.043,8.159,-0.432,95.003,-0.336,0.000,-0.336,-28.688,0.750,-27.188,1.438,-0.062,9.883,0.674,-0.055,-0.045,-0.736,1,-42.611,-8.563,0.000,27.675,2,41.519424,-86.239822,0.000000,0.091,252.399994,11,46,58,92,12
175,12.945378,0,0.215,-0.051,0.148,8.176,-0.466,95.001,-1.007,0.112,0.560,-25.500,0.875,-28.250,1.445,-0.070,9.875,0.674,-0.055,-0.045,-0.736,1,-56.288,-9.842,0.000,27.675,2,41.519424,-86.239822,0.000000,0.049,252.399994,11,46,58,96,12
176,13.066378,0,-0.016,0.035,-0.035,8.168,-0.526,95.007,-2.126,0.224,-0.336,-29.500,1.500,-27.688,1.438,-0.086,9.875,0.674,-0.056,-0.045,-0.736,1,-56.288,-9.842,0.000,27.675,2,41.519424,-86.239822,0.000000,0.039,252.399994,11,46,59,8,12
177,13.187378,0,0.035,0.027,0.156,8.198,-0.637,95.028,3.245,-0.448,-0.224,-27.812,2.750,-26.875,1.453,-0.094,9.875,0.673,-0.056,-0.044,-0.736,1,-45.767,-8.875,0.000,27.675,2,41.519424,-86.239822,0.000000,0.076,252.399994,11,46,59,20,12
178,13.306378,0,0.199,0.043,-0.078,8.245,-0.343,95.079,-1.119,0.895,0.783,-27.250,2.250,-28.062,1.453,-0.047,9.883,0.673,-0.055,-0.046,-0.736,1,-42.611,-8.563,0.000,27.675,2,41.519424,-86.239822,0.000000,0.051,252.399994,11,46,59,32,12
179,13.379378,0,-0.340,-0.004,0.043,8.223,-0.412,95.030,-3.693,0.112,-0.224,-27.875,1.500,-28.688,1.453,-0.117,9.875,0.673,-0.055,-0.046,-0.736,1,-42.611,-8.563,0.000,27.675,2,41.519424,-86.239822,0.000000,0.116,252.399994,11,46,59,40,12
180,13.501378,0,0.074,-0.188,-0.035,8.285,-0.800,95.061,0.783,-0.448,-0.895,-28.812,1.812,-27.875,1.461,-0.133,9.875,0.673,-0.058,-0.044,-0.736,1,-38.402,-8.129,0.000,27.675,2,41.519424,-86.239822,0.000000,0.049,252.399994,11,46,59,52,12
181,13.579378,0,-0.023,-0.074,-0.086,8.297,-0.619,95.084,2.574,0.671,0.783,-27.812,4.062,-29.625,1.445,-0.062,9.891,0.673,-0.057,-0.045,-0.736,1,-42.611,-8.563,0.000,27.675,2,41.519424,-86.239822,0.000000,0.084,252.399994,11,46,59,60,12
182,13.659378,0,-0.254,0.074,-0.012,8.247,-0.389,95.001,-3.581,-0.224,-0.224,-29.500,0.812,-27.188,1.445,-0.102,9.883,0.674,-0.055,-0.046,-0.736,1,-42.611,-8.563,0.000,27.675,2,41.519424,-86.239822,0.000000,0.100,252.399994,11,46,59,68,12
183,13.704378,0,-0.070,0.027,-0.004,8.283,-0.647,95.047,-1.231,-0.112,-0.895,-29.438,4.125,-28.688,1.453,-0.117,9.883,0.673,-0.057,-0.045,-0.736,1,-42.611,-8.563,0.000,27.675,2,41.519424,-86.239822,0.000000,0.073,252.399994,11,46,59,72,12
184,13.779378,0,0.168,0.059,0.113,8.291,-0.597,95.051,2.014,0.112,0.336,-29.000,3.375,-28.188,1.445,-0.109,9.883,0.673,-0.057,-0.045,-0.736,1,-45.767,-8.875,0.000,27.675,2,41.519424,-86.239822,0.000000,0.176,252.399994,11,46,59,80,12
185,13.824378,0,0.066,-0.102,-0.020,8.286,-0.498,95.038,2.350,0.224,0.336,-29.375,2.562,-26.750,1.430,-0.094,9.898,0.673,-0.056,-0.046,-0.736,1,-38.402,-8.129,0.000,27.675,2,41.519424,-86.239822,0.000000,0.025,252.399994,11,46,59,84,12
186,13.897378,0,0.066,-0.035,-0.020,8.261,-0.372,95.013,-0.895,0.112,0.112,-28.812,3.125,-30.125,1.430,-0.094,9.898,0.674,-0.055,-0.046,-0.736,1,-42.611,-8.563,0.000,27.675,2,41.519424,-86.239822,0.000000,0.105,252.399994,11,46,59,92,12
187,13.942378,0,-0.086,0.043,0.020,8.272,-0.639,95.023,-3.581,-0.112,-0.112,-28.500,-0.438,-27.375,1.406,-0.125,9.891,0.673,-0.057,-0.045,-0.736,1,-45.767,-8.875,0.000,27.675,2,41.519424,-86.239822,0.000000,0.064,252.399994,11,46,59,96,12
188,14.018378,0,-0.055,-0.012,0.105,8.274,-0.679,95.025,-0.448,-0.224,-0.224,-26.938,2.812,-27.750,1.391,-0.109,9.891,0.673,-0.057,-0.044,-0.736,1,-48.923,-9.176,0.000,27.675,2,41.519424,-86.239822,0.000000,0.145,252.399994,11,47,0,4,12
189,14.142378,0,0.184,-0.180,-0.086,8.250,-0.590,95.027,1.679,0.224,0.448,-28.250,4.000,-28.750,1.398,-0.094,9.891,0.673,-0.057,-0.045,-0.736,1,-42.611,-8.563,0.000,27.675,2,41.519424,-86.239822,0.000000,0.204,252.399994,11,47,0,16,12
190,14.184378,0,-0.156,0.109,-0.227,8.203,-0.407,94.985,2.574,0.336,0.336,-28.375,1.438,-27.812,1.422,-0.086,9.914,0.674,-0.055,-0.046,-0.735,1,-42.611,-8.563,0.000,27.675,2,41.519424,-86.239822,0.000000,0.233,252.399994,11,47,0,20,12
191,14.304378,0,-0.148,0.043,-0.180,8.206,-0.486,94.980,-1.902,-0.224,-0.112,-26.500,0.125,-28.438,1.414,-0.094,9.906,0.674,-0.056,-0.045,-0.735,1,-45.767,-8.875,0.000,27.675,2,41.519424,-86.239822,0.000000,0.116,252.399994,11,47,0,32,12
192,14.377378,0,0.145,-0.043,-0.012,8.209,-0.545,94.990,0.895,0.336,0.448,-26.625,0.125,-26.812,1.391,-0.086,9.891,0.674,-0.056,-0.045,-0.736,1,-42.611,-8.563,0.000,27.675,2,41.519424,-86.239822,0.000000,0.164,252.399994,11,47,0,40,12
193,14.457378,0,-0.156,-0.004,-0.059,8.181,-0.461,94.997,0.112,0.112,-0.224,-26.938,2.750,-27.375,1.414,-0.086,9.898,0.674,-0.055,-0.045,-0.736,1,-42.611,-8.563,0.000,27.675,2,41.519424,-86.239822,0.000000,0.199,252.399994,11,47,0,48,12
194,14.503378,0,-0.062,-0.027,0.012,8.177,-0.496,94.999,-1.455,0.112,0.224,-27.062,0.688,-27.750,1.414,-0.102,9.898,0.674,-0.055,-0.045,-0.736,1,-35.246,-7.788,0.000,27.675,2,41.519424,-86.239822,0.000000,0.167,252.300003,11,47,0,52,12
195,14.623378,0,0.090,-0.059,-0.020,8.176,-0.591,94.992,-1.567,-0.224,-0.224,-28.125,2.500,-27.250,1.414,-0.109,9.898,0.674,-0.056,-0.044,-0.736,1,-38.402,-8.129,0.000,27.675,2,41.519424,-86.239822,0.000000,0.069,252.300003,11,47,0,64,12
196,14.663378,0,0.035,0.027,0.090,8.183,-0.634,95.009,0.000,0.224,0.336,-28.438,-1.938,-25.812,1.422,-0.117,9.898,0.674,-0.056,-0.044,-0.736,1,-38.402,-8.129,0.000,27.675,2,41.519424,-86.239822,0.000000,0.138,252.300003,11,47,0,68,12
197,14.737378,0,-0.078,-0.094,-0.148,8.163,-0.626,94.990,0.671,0.224,0.224,-26.625,3.625,-27.562,1.422,-0.109,9.906,0.674,-0.056,-0.044,-0.736,1,-38.402,-8.129,0.000,27.675,2,41.519424,-86.239822,0.000000,0.017,252.399994,11,47,0,76,12
198,14.783378,0,-0.109,0.164,0.090,8.155,-0.573,94.984,0.895,0.000,-0.224,-27.125,1.250,-27.375,1.414,-0.102,9.906,0.674,-0.056,-0.044,-0.736,1,-35.246,-7.788,0.000,27.675,2,41.519424,-86.239822,0.000000,0.034,252.399994,11,47,0,80,12
199,14.867378,0,-0.023,0.082,-0.066,8.160,-0.557,94.995,-1.007,-0.112,0.000,-27.125,1.250,-27.375,1.406,-0.094,9.906,0.674,-0.056,-0.044,-0.736,1,-35.246,-7.788,0.000,27.675,2,41.519424,-86.239822,0.000000,0.169,252.300003,11,47,0,88,12
200,14.943378,0,0.090,-0.086,0.066,8.154,-0.657,94.987,-1.790,-0.224,-0.336,-29.000,2.875,-27.250,1.414,-0.117,9.891,0.674,-0.056,-0.044,-0.736,1,-35.246,-7.788,0.000,27.675,2,41.519424,-86.239822,0.000000,0.005,252.300003,11,47,0,96,12
201,14.982378,0,0.035,-0.043,0.059,8.167,-0.714,95.013,1.790,0.224,0.224,-29.250,2.688,-29.250,1.422,-0.133,9.898,0.673,-0.057,-0.044,-0.736,1,-38.402,-8.129,0.000,27.675,2,41.519424,-86.239822,0.000000,0.132,252.300003,11,47,1,0,12
202,15.103378,0,0.035,-0.012,-0.027,8.153,-0.626,95.000,2.686,0.336,0.560,-28.688,0.875,-28.125,1.430,-0.109,9.898,0.674,-0.056,-0.044,-0.736,1,-35.246,-7.788,0.000,27.675,2,41.519424,-86.239822,0.000000,0.257,252.300003,11,47,1,12,12
203,15.186378,0,-0.078,0.074,0.090,8.143,-0.514,94.983,-1.231,0.112,0.224,-28.000,5.188,-28.625,1.422,-0.094,9.906,0.674,-0.055,-0.045,-0.736,1,-32.090,-7.431,0.000,27.675,2,41.519424,-86.239822,0.000000,0.086,252.300003,11,47,1,20,12
204,15.223378,0,0.051,0.051,-0.027,8.145,-0.573,94.984,-2.238,-0.112,-0.224,-27.438,0.312,-27.188,1.406,-0.102,9.906,0.674,-0.056,-0.044,-0.736,1,-42.611,-8.563,0.000,27.675,2,41.519424,-86.239822,0.000000,0.214,252.300003,11,47,1,24,12
205,15.297378,0,-0.023,-0.051,-0.102,8.148,-0.736,94.992,-2.686,0.000,-0.224,-27.938,1.812,-28.375,1.406,-0.117,9.906,0.674,-0.057,-0.043,-0.736,1,-35.246,-7.788,0.000,27.675,2,41.519424,-86.239822,0.000000,0.219,252.300003,11,47,1,32,12
206,15.342378,0,0.035,0.066,0.297,8.151,-0.806,94.987,1.343,0.000,-0.112,-29.812,0.625,-27.562,1.414,-0.117,9.898,0.674,-0.057,-0.043,-0.736,1,-38.402,-8.129,0.000,27.675,2,41.519424,-86.239822,0.000000,0.235,252.300003,11,47,1,36,12
207,15.417378,0,-0.109,-0.285,-0.172,8.145,-0.686,94.995,2.686,0.112,0.112,-26.750,2.000,-28.438,1.414,-0.109,9.898,0.674,-0.056,-0.044,-0.736,1,-38.402,-8.129,0.000,27.675,2,41.519424,-86.239822,0.000000,0.245,252.300003,11,47,1,44,12
208,15.462378,0,0.008,0.035,0.555,8.139,-0.539,94.971,4.476,1.007,-0.112,-30.625,-2.438,-26.812,1.414,-0.086,9.898,0.674,-0.055,-0.044,-0.735,1,-38.402,-8.129,0.000,27.675,2,41.519424,-86.239822,0.000000,0.062,252.300003,11,47,1,48,12
209,15.546378,0,-0.102,0.027,-0.148,8.095,-0.338,94.970,-1.679,0.000,0.336,-29.062,0.375,-26.750,1.406,-0.086,9.914,0.674,-0.054,-0.046,-0.735,1,-45.767,-8.875,0.000,27.675,2,41.519424,-86.239822,0.000000,0.128,252.300003,11,47,1,56,12
210,15.625378,0,-0.102,-0.082,-0.301,8.117,-0.835,94.950,-6.379,0.224,0.560,-29.250,2.250,-28.375,1.414,-0.156,9.914,0.674,-0.057,-0.042,-0.735,1,-32.090,-7.431,0.000,27.675,2,41.519424,-86.239822,0.000000,0.208,252.300003,11,47,1,64,12
211,15.672378,0,0.035,-0.062,0.043,8.155,-0.791,94.988,2.686,-0.112,0.224,-26.688,2.250,-30.188,1.422,-0.164,9.914,0.674,-0.057,-0.043,-0.736,1,-38.402,-8.129,0.000,27.675,2,41.519424,-86.239822,0.000000,0.150,252.300003,11,47,1,68,12
212,15.737378,0,0.082,-0.133,-0.043,8.133,-0.630,94.955,4.924,1.007,0.560,-27.688,2.688,-28.562,1.422,-0.125,9.922,0.674,-0.056,-0.044,-0.735,1,-32.090,-7.431,0.000,27.675,2,41.519424,-86.239822,0.000000,0.206,252.300003,11,47,1,76,12
213,15.826378,0,0.043,0.180,-0.004,8.097,-0.391,94.917,1.343,0.112,-0.112,-26.812,2.250,-28.062,1.414,-0.086,9.922,0.674,-0.054,-0.045,-0.735,1,-32.090,-7.431,0.000,27.675,2,41.519424,-86.239822,0.000000,0.100,252.300003,11,47,1,84,12
214,15.871378,0,0.074,0.035,0.258,8.093,-0.405,94.931,-4.141,-0.448,-0.112,-28.250,4.312,-28.875,1.422,-0.109,9.930,0.674,-0.054,-0.045,-0.735,1,-27.881,-6.927,0.000,27.675,2,41.519424,-86.239822,0.000000,0.130,252.300003,11,47,1,88,12
215,15.945378,0,0.035,-0.086,0.109,8.128,-0.740,94.952,-4.029,-0.224,-0.336,-27.438,0.375,-27.625,1.422,-0.141,9.930,0.674,-0.057,-0.043,-0.735,1,-35.246,-7.788,0.000,27.675,2,41.519424,-86.239822,0.000000,0.287,252.300003,11,47,1,96,12
216,15.991378,0,0.051,0.051,-0.105,8.142,-0.838,94.965,2.350,0.783,0.336,-28.312,1.062,-27.375,1.414,-0.109,9.945,0.674,-0.057,-0.043,-0.736,1,-32.090,-7.431,0.000,27.675,2,41.519424,-86.239822,0.000000,0.177,252.199997,11,47,2,0,12
217,16.074377,0,-0.070,-0.156,0.074,8.107,-0.618,94.926,4.252,0.112,0.560,-26.188,2.938,-27.438,1.406,-0.086,9.938,0.674,-0.056,-0.044,-0.735,1,-32.090,-7.431,0.000,27.675,2,41.519424,-86.239822,0.000000,0.387,252.199997,11,47,2,8,12
218,16.179379,0,-0.031,-0.051,-0.148,8.104,-0.434,94.934,-0.783,-0.560,-0.112,-28.375,1.750,-27.875,1.406,-0.039,9.914,0.674,-0.055,-0.045,-0.735,1,-24.725,-6.523,0.000,27.675,2,41.519424,-86.239822,0.000000,0.324,252.199997,11,47,2,20,12
219,16.220379,0,0.043,0.211,0.457,8.109,-0.554,94.930,1.007,-0.224,-0.448,-28.375,-1.625,-27.562,1.414,-0.109,9.906,0.674,-0.055,-0.044,-0.735,1,-14.203,-4.944,0.000,27.675,2,41.519424,-86.239822,0.000000,0.231,252.199997,11,47,2,24,12
220,16.308378,0,0.008,0.059,0.410,8.099,-0.658,94.938,-0.336,1.455,0.560,-28.125,-0.438,-27.438,1.406,-0.109,9.938,0.674,-0.056,-0.044,-0.735,1,-24.725,-6.523,0.000,27.675,2,41.519424,-86.239822,0.000000,0.235,252.199997,11,47,2,32,12
221,16.383377,0,-0.156,-0.348,-0.801,8.048,-1.127,94.791,-4.588,0.000,2.350,-29.312,2.375,-27.562,1.414,-0.141,9.961,0.675,-0.058,-0.040,-0.735,1,-45.767,-8.875,0.000,27.675,2,41.519424,-86.239822,0.000000,0.209,252.199997,11,47,2,40,12
222,16.541378,0,-0.547,-0.430,-0.508,8.097,-1.469,94.757,-3.357,-0.112,-1.679,-26.688,0.938,-27.875,1.422,-0.234,9.938,0.675,-0.061,-0.038,-0.735,1,-35.246,-7.788,0.000,27.675,2,41.519424,-86.239822,0.000000,0.123,252.199997,11,47,2,56,12
223,16.583378,0,0.543,-0.066,-0.309,8.170,-1.278,94.889,4.476,1.343,1.567,-27.375,3.062,-27.438,1.422,0.047,9.930,0.674,-0.060,-0.040,-0.735,1,-21.568,-6.092,0.000,27.675,2,41.519424,-86.239822,0.000000,0.113,252.199997,11,47,2,60,12
224,16.665379,0,0.129,0.031,-0.195,8.001,0.110,94.838,-4.141,0.783,1.007,-27.312,-0.250,-27.562,1.406,0.039,9.922,0.675,-0.051,-0.048,-0.734,1,-32.090,-7.431,0.000,27.675,2,41.519424,-86.239822,0.000000,0.049,252.199997,11,47,2,68,12
225,16.781378,0,-0.453,0.395,-0.301,8.028,-0.173,94.813,0.336,-1.007,-1.119,-26.625,0.250,-27.250,1.422,-0.016,9.914,0.675,-0.053,-0.046,-0.734,1,-24.725,-6.523,0.000,27.675,2,41.519424,-86.239822,0.000000,0.041,252.199997,11,47,2,80,12
226,16.863379,0,-0.461,0.426,-0.340,8.155,-0.225,94.914,1.343,-0.112,-0.112,-27.000,3.312,-27.562,1.430,-0.016,9.898,0.674,-0.054,-0.047,-0.735,1,-27.881,-6.927,0.000,27.675,2,41.519424,-86.239822,0.000000,0.150,252.199997,11,47,2,88,12
227,16.899378,0,0.367,0.027,-0.059,8.209,-0.558,94.945,-2.126,-0.448,0.000,-28.812,2.250,-28.812,1.430,-0.023,9.906,0.674,-0.056,-0.045,-0.735,1,-27.881,-6.927,0.000,27.675,2,41.519424,-86.239822,0.000000,0.100,252.199997,11,47,2,92,12
228,16.950378,0,0.098,-0.281,0.141,8.209,-0.557,94.955,1.343,-0.671,-1.455,-26.438,0.000,-29.750,1.438,-0.086,9.898,0.674,-0.056,-0.045,-0.735,1,-27.881,-6.927,0.000,27.675,2,41.519424,-86.239822,0.000000,0.140,252.199997,11,47,2,96,12
229,17.022379,0,-0.180,-0.105,0.066,8.248,-0.428,95.009,3.581,0.112,-0.448,-27.125,1.688,-28.438,1.438,-0.039,9.891,0.674,-0.056,-0.046,-0.736,1,-24.725,-6.523,0.000,27.675,2,41.519424,-86.239822,0.000000,0.174,252.199997,11,47,3,4,12
230,17.104378,0,-0.055,-0.051,0.180,8.204,-0.218,94.979,-0.895,0.560,0.671,-27.500,2.062,-30.062,1.430,-0.031,9.898,0.674,-0.054,-0.047,-0.735,1,-21.568,-6.092,0.000,27.675,2,41.519424,-86.239822,0.000000,0.187,252.199997,11,47,3,12,12
231,17.140379,0,-0.133,0.090,0.219,8.222,-0.510,94.988,-5.819,-0.448,0.000,-26.875,-0.250,-28.000,1.438,-0.102,9.891,0.674,-0.056,-0.045,-0.736,1,-27.881,-6.927,0.000,27.675,2,41.519424,-86.239822,0.000000,0.157,252.199997,11,47,3,16,12
232,17.224379,0,-0.254,-0.102,-0.004,8.256,-0.823,95.025,-6.714,-0.671,-0.783,-29.125,2.062,-29.125,1.445,-0.141,9.883,0.673,-0.058,-0.043,-0.736,1,-27.881,-6.927,0.000,27.675,2,41.519424,-86.239822,0.000000,0.042,252.199997,11,47,3,24,12
233,17.340378,0,0.281,-0.234,-0.043,8.278,-0.985,95.048,5.260,0.112,0.671,-29.062,3.438,-27.000,1.445,-0.141,9.883,0.673,-0.059,-0.042,-0.736,1,-27.881,-6.927,0.000,27.675,2,41.519424,-86.239822,0.000000,0.238,252.199997,11,47,3,36,12
234,17.470379,0,-0.016,0.027,-0.156,8.246,-0.480,95.044,-0.560,0.560,0.783,-26.688,0.812,-27.000,1.430,-0.078,9.891,0.673,-0.056,-0.045,-0.736,1,-32.090,-7.431,0.000,27.675,2,41.519424,-86.239822,0.000000,0.159,252.199997,11,47,3,48,12
235,17.542377,0,-0.008,-0.035,0.113,8.227,-0.512,95.022,-1.231,-0.112,0.000,-28.875,2.812,-28.562,1.430,-0.094,9.883,0.673,-0.056,-0.045,-0.736,1,-27.881,-6.927,0.000,27.675,2,41.519424,-86.239822,0.000000,0.089,252.199997,11,47,3,56,12
236,17.590378,0,0.223,-0.059,0.035,8.238,-0.531,95.031,-1.679,-0.112,-0.336,-29.625,-1.812,-25.812,1.430,-0.102,9.883,0.673,-0.056,-0.045,-0.736,1,-27.881,-6.927,0.000,27.675,2,41.519424,-86.239822,0.000000,0.110,252.199997,11,47,3,60,12
237,17.663378,0,0.105,-0.164,-0.078,8.239,-0.665,95.021,-1.343,0.112,0.336,-28.375,1.438,-27.875,1.430,-0.117,9.883,0.673,-0.057,-0.044,-0.736,1,-32.090,-7.431,0.000,27.675,2,41.519424,-86.239822,0.000000,0.154,252.199997,11,47,3,68,12
238,17.740377,0,-0.199,-0.066,0.035,8.228,-0.637,95.003,2.686,0.112,-0.112,-29.938,0.875,-27.188,1.430,-0.109,9.883,0.674,-0.057,-0.044,-0.736,1,-32.090,-7.431,0.000,27.675,2,41.519424,-86.239822,0.000000,0.143,252.199997,11,47,3,76,12
239,17.857378,0,0.105,0.066,-0.102,8.209,-0.430,95.003,0.671,0.336,0.336,-26.625,0.562,-27.375,1.391,-0.117,9.898,0.674,-0.055,-0.046,-0.736,1,-42.611,-8.563,0.000,27.675,2,41.519424,-86.239822,0.000000,0.122,252.199997,11,47,3,88,12
240,17.908379,0,-0.031,-0.180,0.113,8.167,-0.508,94.983,-2.350,-0.336,-0.112,-27.562,1.188,-27.062,1.406,-0.125,9.883,0.674,-0.055,-0.045,-0.736,1,-48.923,-9.176,0.000,27.675,2,41.519424,-86.239822,0.000000,0.265,252.199997,11,47,3,92,12
241,17.949377,0,0.121,-0.055,0.105,8.174,-0.779,94.998,-0.112,0.336,0.560,-28.938,3.125,-28.625,1.414,-0.148,9.891,0.674,-0.057,-0.043,-0.736,1,-48.923,-9.176,0.000,27.675,2,41.519424,-86.239822,0.000000,0.302,252.199997,11,47,3,96,12
242,18.023378,0,0.035,-0.086,-0.133,8.168,-0.755,94.990,1.343,0.224,-0.112,-28.938,2.625,-27.625,1.414,-0.156,9.898,0.674,-0.057,-0.043,-0.736,1,-48.923,-9.176,0.000,27.675,2,41.519424,-86.239822,0.000000,0.162,252.199997,11,47,4,4,12
243,18.068378,0,0.027,0.074,0.059,8.164,-0.646,94.998,2.798,0.112,0.112,-27.875,4.312,-28.938,1.430,-0.133,9.898,0.674,-0.056,-0.044,-0.736,1,-48.923,-9.176,0.000,27.675,2,41.519424,-86.239822,0.000000,0.089,252.199997,11,47,4,8,12
244,18.110378,0,0.066,0.066,0.098,8.144,-0.544,94.976,-0.112,0.224,0.224,-26.812,1.938,-28.062,1.430,-0.117,9.898,0.674,-0.056,-0.044,-0.735,1,-48.923,-9.176,0.000,27.675,2,41.519424,-86.239822,0.000000,0.204,252.199997,11,47,4,12,12
245,18.227379,0,0.027,0.035,0.012,8.147,-0.604,94.971,-2.910,-0.224,-0.112,-29.500,3.125,-26.500,1.438,-0.125,9.906,0.674,-0.056,-0.044,-0.735,1,-48.923,-9.176,0.000,27.675,2,41.519424,-86.239822,0.000000,0.236,252.199997,11,47,4,24,12
246,18.270378,0,0.000,-0.078,0.180,8.184,-0.873,94.997,-3.133,-0.224,-0.336,-25.562,1.500,-28.062,1.414,-0.164,9.898,0.673,-0.058,-0.043,-0.736,1,-45.767,-8.875,0.000,27.675,2,41.519424,-86.239822,0.000000,0.127,252.199997,11,47,4,28,12
247,18.343378,0,0.121,-0.012,0.098,8.175,-0.789,94.993,2.910,0.560,0.336,-29.625,1.312,-26.500,1.414,-0.156,9.898,0.674,-0.057,-0.043,-0.736,1,-42.611,-8.563,0.000,27.675,2,41.519424,-86.239822,0.000000,0.135,252.199997,11,47,4,36,12
248,18.422379,0,0.035,0.121,-0.027,8.155,-0.687,94.985,1.343,0.112,0.112,-29.625,2.312,-28.812,1.430,-0.133,9.898,0.674,-0.056,-0.044,-0.736,1,-45.767,-8.875,0.000,27.675,2,41.519424,-86.239822,0.000000,0.042,252.199997,11,47,4,44,12
249,18.459377,0,-0.047,0.082,-0.059,8.167,-0.736,94.982,-1.902,-0.112,0.000,-29.500,1.000,-28.125,1.430,-0.141,9.898,0.674,-0.057,-0.043,-0.736,1,-45.767,-8.875,0.000,27.675,2,41.519424,-86.239822,0.000000,0.236,252.199997,11,47,4,48,12
250,18.544378,0,-0.078,-0.055,-0.012,8.171,-0.815,94.986,-2.574,0.000,-0.112,-27.562,2.250,-29.312,1.422,-0.148,9.891,0.674,-0.057,-0.043,-0.736,1,-45.767,-8.875,0.000,27.675,2,41.519424,-86.239822,0.000000,0.218,252.199997,11,47,4,56,12
251,18.622377,0,0.082,-0.047,0.027,8.184,-0.893,94.995,1.119,0.000,0.000,-28.812,1.812,-27.938,1.414,-0.156,9.891,0.673,-0.058,-0.042,-0.736,1,-45.767,-8.875,0.000,27.675,2,41.519424,-86.239822,0.000000,0.199,252.199997,11,47,4,64,12
252,18.659378,0,0.066,0.004,0.051,8.167,-0.735,94.992,2.574,0.560,0.336,-25.875,-0.438,-25.562,1.430,-0.141,9.914,0.674,-0.057,-0.043,-0.736,1,-42.611,-8.563,0.000,27.675,2,41.519424,-86.239822,0.000000,0.170,252.199997,11,47,4,68,12
253,18.742378,0,-0.047,0.004,-0.188,8.154,-0.658,94.968,1.790,0.224,0.448,-26.438,2.562,-28.688,1.430,-0.133,9.914,0.674,-0.056,-0.044,-0.735,1,-45.767,-8.875,0.000,27.675,2,41.519424,-86.239822,0.000000,0.159,252.199997,11,47,4,76,12
